NMEA,$GPGSV,3,1,10,03,77,177,36,04,59,324,23,07,18,232,17,16,39,118,31,1*60,1730920418778
NMEA,$GPGSV,3,2,10,26,38,071,27,28,04,049,20,31,33,046,29,02,07,201,,1*64,1730920418778
NMEA,$GPGSV,3,3,10,06,16,307,,09,33,296,,1*64,1730920418778
NMEA,$GLGSV,3,1,09,70,61,049,22,86,15,272,14,73,52,174,32,80,56,053,39,1*71,1730920418779
NMEA,$GLGSV,3,2,09,79,07,026,25,69,11,106,22,71,39,327,21,87,11,319,,1*7F,1730920418779
NMEA,$GLGSV,3,3,09,85,00,000,,1*4C,1730920418779
NMEA,$GAGSV,3,1,09,07,32,075,25,21,16,170,21,26,11,195,35,27,41,115,38,7*7B,1730920418780
NMEA,$GAGSV,3,2,09,29,67,354,33,30,25,054,24,10,09,323,,12,22,303,,7*79,1730920418780
NMEA,$GAGSV,3,3,09,19,34,292,,7*4C,1730920418780
NMEA,$PQGSV,1,1,0,0*43,1730920418780
NMEA,$PQGSV,1,1,0,0*43,1730920418781
NMEA,$GNGSA,A,3,03,04,16,26,31,,,,,,,,1.3,0.9,0.9,1*35,1730920418784
NMEA,$GNGSA,A,3,69,71,73,80,,,,,,,,,1.3,0.9,0.9,2*35,1730920418784
NMEA,$GNGSA,A,3,07,21,27,30,,,,,,,,,1.3,0.9,0.9,3*33,1730920418784
NMEA,$GNVTG,,T,,M,0.0,N,0.0,K,A*3D,1730920418784
NMEA,$GNRMC,191338.00,A,3725.606530,N,12210.615265,W,0.0,,061124,15.0,E,A,V*5E,1730920418784
NMEA,$GNGGA,191338.00,3725.606530,N,12210.615265,W,1,12,0.9,32.4,M,-27.9,M,,*79,1730920418784
NMEA,$GPGSV,3,1,10,03,77,177,36,04,59,324,23,07,18,232,17,16,39,118,29,1*69,1730920419780
NMEA,$GPGSV,3,2,10,26,38,071,28,28,04,049,18,31,33,046,27,02,07,201,,1*6E,1730920419782
NMEA,$GPGSV,3,3,10,06,16,307,,09,33,296,,1*64,1730920419782
NMEA,$GLGSV,3,1,09,70,61,049,22,86,15,272,14,73,52,174,32,80,56,053,38,1*70,1730920419782
NMEA,$GLGSV,3,2,09,79,07,026,25,69,11,106,21,71,39,327,22,87,11,319,,1*7F,1730920419782
NMEA,$GLGSV,3,3,09,85,00,000,,1*4C,1730920419782
NMEA,$GAGSV,3,1,09,07,32,075,23,21,16,170,23,26,11,195,34,27,41,115,37,7*71,1730920419782
NMEA,$GAGSV,3,2,09,29,67,354,32,30,25,054,24,10,09,323,,12,22,303,,7*78,1730920419783
NMEA,$GAGSV,3,3,09,19,34,292,,7*4C,1730920419783
NMEA,$PQGSV,1,1,0,0*43,1730920419783
NMEA,$PQGSV,1,1,0,0*43,1730920419783
NMEA,$GNGSA,A,3,03,04,16,26,31,,,,,,,,1.3,0.9,0.9,1*35,1730920419786
NMEA,$GNGSA,A,3,69,71,73,80,,,,,,,,,1.3,0.9,0.9,2*35,1730920419786
NMEA,$GNGSA,A,3,07,21,27,30,,,,,,,,,1.3,0.9,0.9,3*33,1730920419786
NMEA,$GNVTG,,T,,M,0.0,N,0.0,K,A*3D,1730920419787
NMEA,$GNRMC,191339.00,A,3725.607522,N,12210.615561,W,0.0,,061124,15.0,E,A,V*5E,1730920419787
NMEA,$GNGGA,191339.00,3725.607522,N,12210.615561,W,1,12,0.9,32.1,M,-27.9,M,,*7C,1730920419787
NMEA,$GPGSV,3,1,10,03,77,177,38,04,59,324,28,07,18,232,17,16,39,118,33,1*67,1730920420783
NMEA,$GPGSV,3,2,10,26,38,071,29,28,04,049,19,31,33,046,24,02,07,201,,1*6D,1730920420783
NMEA,$GPGSV,3,3,10,06,16,307,,09,33,296,,1*64,1730920420784
NMEA,$GLGSV,3,1,09,70,61,049,22,86,15,272,14,73,52,174,32,80,56,053,37,1*7F,1730920420788
NMEA,$GLGSV,3,2,09,79,07,026,25,69,11,106,21,71,39,327,27,87,11,319,,1*7A,1730920420789
NMEA,$GLGSV,3,3,09,85,00,000,,1*4C,1730920420789
NMEA,$GAGSV,3,1,09,07,32,075,24,21,16,170,26,26,11,195,33,27,41,115,36,7*75,1730920420789
NMEA,$GAGSV,3,2,09,29,67,354,31,30,25,054,23,10,09,323,,12,22,303,,7*7C,1730920420789
NMEA,$GAGSV,3,3,09,19,34,292,,7*4C,1730920420791
NMEA,$PQGSV,1,1,0,0*43,1730920420791
NMEA,$PQGSV,1,1,0,0*43,1730920420791
NMEA,$GNGSA,A,3,03,04,16,26,31,,,,,,,,1.3,0.9,0.9,1*35,1730920420794
NMEA,$GNGSA,A,3,69,71,73,80,,,,,,,,,1.3,0.9,0.9,2*35,1730920420794
NMEA,$GNGSA,A,3,07,21,27,30,,,,,,,,,1.3,0.9,0.9,3*33,1730920420795
NMEA,$GNVTG,,T,,M,0.0,N,0.0,K,A*3D,1730920420795
NMEA,$GNRMC,191340.00,A,3725.608178,N,12210.615172,W,0.0,,061124,15.0,E,A,V*52,1730920420796
NMEA,$GNGGA,191340.00,3725.608178,N,12210.615172,W,1,12,0.9,31.7,M,-27.9,M,,*75,1730920420796
NMEA,$GPGSV,3,1,10,03,77,177,38,04,59,324,30,07,18,232,17,16,39,118,31,1*6C,1730920421781
NMEA,$GPGSV,3,2,10,26,38,071,29,28,04,049,19,31,33,046,24,02,07,201,,1*6D,1730920421781
NMEA,$GPGSV,3,3,10,06,16,307,,09,33,296,,1*64,1730920421781
NMEA,$GLGSV,3,1,10,74,10,194,28,70,61,049,22,86,15,272,14,73,52,174,35,1*7D,1730920421781
NMEA,$GLGSV,3,2,10,80,56,053,37,79,07,026,23,69,11,106,20,71,39,327,27,1*78,1730920421781
NMEA,$GLGSV,3,3,10,87,11,319,,85,00,000,,1*70,1730920421781
NMEA,$GAGSV,3,1,09,07,32,075,25,21,16,170,37,26,11,195,35,27,41,115,35,7*71,1730920421781
NMEA,$GAGSV,3,2,09,29,67,354,27,30,25,054,19,10,09,323,,12,22,303,,7*72,1730920421782
NMEA,$GAGSV,3,3,09,19,34,292,,7*4C,1730920421782
NMEA,$PQGSV,1,1,0,0*43,1730920421782
NMEA,$PQGSV,1,1,0,0*43,1730920421782
NMEA,$GNGSA,A,3,03,04,16,26,31,,,,,,,,1.3,0.9,0.9,1*35,1730920421785
NMEA,$GNGSA,A,3,69,71,73,80,,,,,,,,,1.3,0.9,0.9,2*35,1730920421785
NMEA,$GNGSA,A,3,07,21,27,30,,,,,,,,,1.3,0.9,0.9,3*33,1730920421786
NMEA,$GNVTG,112.5,T,112.5,M,1.0,N,1.9,K,A*34,1730920421786
NMEA,$GNRMC,191341.00,A,3725.609405,N,12210.615917,W,1.0,112.5,061124,15.0,E,A,V*7E,1730920421786
NMEA,$GNGGA,191341.00,3725.609405,N,12210.615917,W,1,12,0.9,29.0,M,-27.9,M,,*7F,1730920421786
NMEA,$GPGSV,3,1,10,03,77,177,38,04,59,324,31,07,18,232,18,16,39,118,33,1*60,1730920422783
NMEA,$GPGSV,3,2,10,26,38,071,30,28,04,049,19,31,33,046,26,02,07,201,,1*67,1730920422786
NMEA,$GPGSV,3,3,10,06,16,307,,09,33,296,,1*64,1730920422787
NMEA,$GLGSV,3,1,10,74,10,194,26,70,61,049,23,86,15,272,14,73,52,174,35,1*72,1730920422788
NMEA,$GLGSV,3,2,10,80,56,053,35,79,07,026,21,69,11,106,24,71,39,327,25,1*7E,1730920422788
NMEA,$GLGSV,3,3,10,87,11,319,,85,00,000,,1*70,1730920422788
NMEA,$GAGSV,3,1,09,07,32,075,28,21,16,170,35,26,11,195,34,27,41,115,37,7*7D,1730920422789
NMEA,$GAGSV,3,2,09,29,67,354,30,30,25,054,19,10,09,323,,12,22,303,,7*74,1730920422789
NMEA,$GAGSV,3,3,09,19,34,292,,7*4C,1730920422789
NMEA,$PQGSV,1,1,0,0*43,1730920422790
NMEA,$PQGSV,1,1,0,0*43,1730920422790
NMEA,$GNGSA,A,3,03,04,16,26,31,,,,,,,,1.3,0.9,0.9,1*35,1730920422793
NMEA,$GNGSA,A,3,69,71,73,80,,,,,,,,,1.3,0.9,0.9,2*35,1730920422794
NMEA,$GNGSA,A,3,07,21,27,30,,,,,,,,,1.3,0.9,0.9,3*33,1730920422794
NMEA,$GNVTG,109.2,T,109.2,M,1.4,N,2.6,K,A*3C,1730920422794
NMEA,$GNRMC,191342.00,A,3725.609843,N,12210.616502,W,1.4,109.2,061124,15.0,E,A,V*71,1730920422794
NMEA,$GNGGA,191342.00,3725.609843,N,12210.616502,W,1,12,0.9,24.9,M,-27.9,M,,*7D,1730920422794
NMEA,$GPGSV,3,1,10,03,77,177,37,04,59,324,26,07,18,232,18,09,33,296,18,1*61,1730920423781
NMEA,$GPGSV,3,2,10,16,39,118,37,26,38,071,31,28,04,049,19,31,33,046,27,1*60,1730920423781
NMEA,$GPGSV,3,3,10,02,07,201,,06,16,307,,1*66,1730920423781
NMEA,$GLGSV,3,1,10,74,10,194,25,70,61,049,25,86,15,272,14,73,52,174,35,1*77,1730920423782
NMEA,$GLGSV,3,2,10,80,56,053,36,79,07,026,21,69,11,106,26,71,39,327,26,1*7C,1730920423782
NMEA,$GLGSV,3,3,10,87,11,319,,85,00,000,,1*70,1730920423782
NMEA,$GAGSV,3,1,09,07,32,075,30,21,16,170,32,26,11,195,30,27,41,115,34,7*74,1730920423782
NMEA,$GAGSV,3,2,09,29,67,354,30,30,25,054,21,10,09,323,,12,22,303,,7*7F,1730920423782
NMEA,$GAGSV,3,3,09,19,34,292,,7*4C,1730920423783
NMEA,$PQGSV,1,1,0,0*43,1730920423783
NMEA,$PQGSV,1,1,0,0*43,1730920423784
NMEA,$GNGSA,A,3,03,04,16,26,31,,,,,,,,1.3,0.9,0.9,1*35,1730920423788
NMEA,$GNGSA,A,3,69,71,73,80,,,,,,,,,1.3,0.9,0.9,2*35,1730920423788
NMEA,$GNGSA,A,3,07,21,27,30,,,,,,,,,1.3,0.9,0.9,3*33,1730920423788
NMEA,$GNVTG,103.4,T,103.4,M,1.1,N,2.1,K,A*3E,1730920423789
NMEA,$GNRMC,191343.00,A,3725.609907,N,12210.616440,W,1.1,103.4,061124,15.0,E,A,V*7F,1730920423789
NMEA,$GNGGA,191343.00,3725.609907,N,12210.616440,W,1,12,0.9,24.7,M,-27.9,M,,*74,1730920423789
NMEA,$GPGSV,3,1,10,02,07,201,19,03,77,177,35,04,59,324,30,07,18,232,18,1*67,1730920424781
NMEA,$GPGSV,3,2,10,09,33,296,21,16,39,118,36,26,38,071,28,28,04,049,16,1*64,1730920424781
NMEA,$GPGSV,3,3,10,31,33,046,24,06,16,307,,1*66,1730920424785
NMEA,$GLGSV,3,1,10,74,10,194,24,70,61,049,23,86,15,272,14,73,52,174,33,1*76,1730920424785
NMEA,$GLGSV,3,2,10,80,56,053,35,79,07,026,20,69,11,106,22,71,39,327,26,1*7A,1730920424786
NMEA,$GLGSV,3,3,10,87,11,319,,85,00,000,,1*70,1730920424786
NMEA,$GAGSV,3,1,09,07,32,075,27,21,16,170,30,26,11,195,32,27,41,115,34,7*72,1730920424786
NMEA,$GAGSV,3,2,09,29,67,354,29,30,25,054,18,10,09,323,,12,22,303,,7*7D,1730920424786
NMEA,$GAGSV,3,3,09,19,34,292,,7*4C,1730920424786
NMEA,$PQGSV,1,1,0,0*43,1730920424786
NMEA,$PQGSV,1,1,0,0*43,1730920424786
NMEA,$GNGSA,A,3,03,04,09,16,26,31,,,,,,,1.2,0.8,0.8,1*3D,1730920424790
NMEA,$GNGSA,A,3,69,71,73,80,,,,,,,,,1.2,0.8,0.8,2*34,1730920424790
NMEA,$GNGSA,A,3,07,21,27,30,,,,,,,,,1.2,0.8,0.8,3*32,1730920424790
NMEA,$GNVTG,96.9,T,96.9,M,3.4,N,6.3,K,A*3F,1730920424790
NMEA,$GNRMC,191344.00,A,3725.610107,N,12210.615710,W,3.4,96.9,061124,15.0,E,A,V*4A,1730920424790
NMEA,$GNGGA,191344.00,3725.610107,N,12210.615710,W,1,12,0.8,24.1,M,-27.9,M,,*71,1730920424791
NMEA,$GPGSV,3,1,10,02,07,201,20,03,77,177,37,04,59,324,29,07,18,232,21,1*6D,1730920425787
NMEA,$GPGSV,3,2,10,09,33,296,21,16,39,118,37,26,38,071,29,28,04,049,18,1*6A,1730920425787
NMEA,$GPGSV,3,3,10,31,33,046,27,06,16,307,,1*65,1730920425788
NMEA,$GLGSV,3,1,10,74,10,194,23,70,61,049,24,86,15,272,14,73,52,174,39,1*7C,1730920425788
NMEA,$GLGSV,3,2,10,80,56,053,35,79,07,026,21,69,11,106,29,71,39,327,24,1*72,1730920425788
NMEA,$GLGSV,3,3,10,87,11,319,,85,00,000,,1*70,1730920425788
NMEA,$GAGSV,3,1,09,07,32,075,27,21,16,170,34,26,11,195,36,27,41,115,34,7*72,1730920425788
NMEA,$GAGSV,3,2,09,29,67,354,30,30,25,054,26,10,09,323,,12,22,303,,7*78,1730920425789
NMEA,$GAGSV,3,3,09,19,34,292,,7*4C,1730920425794
NMEA,$PQGSV,1,1,0,0*43,1730920425794
NMEA,$PQGSV,1,1,0,0*43,1730920425795
NMEA,$GNGSA,A,3,03,04,07,09,16,26,31,,,,,,1.1,0.7,0.8,1*36,1730920425798
NMEA,$GNGSA,A,3,69,71,73,80,,,,,,,,,1.1,0.7,0.8,2*38,1730920425799
NMEA,$GNGSA,A,3,07,21,27,30,,,,,,,,,1.1,0.7,0.8,3*3E,1730920425799
NMEA,$GNVTG,97.2,T,97.2,M,1.9,N,3.6,K,A*30,1730920425799
NMEA,$GNRMC,191345.00,A,3725.610308,N,12210.614877,W,1.9,97.2,061124,15.0,E,A,V*4C,1730920425799
NMEA,$GNGGA,191345.00,3725.610308,N,12210.614877,W,1,12,0.7,23.6,M,-27.9,M,,*7D,1730920425799
NMEA,$GPGSV,3,1,10,02,07,201,20,03,77,177,38,04,59,324,28,07,18,232,19,1*68,1730920426783
NMEA,$GPGSV,3,2,10,09,33,296,22,16,39,118,38,26,38,071,29,28,04,049,18,1*66,1730920426784
NMEA,$GPGSV,3,3,10,31,33,046,27,06,16,307,,1*65,1730920426784
NMEA,$GLGSV,3,1,10,74,10,194,24,70,61,049,24,86,15,272,14,73,52,174,40,1*75,1730920426784
NMEA,$GLGSV,3,2,10,80,56,053,36,79,07,026,22,69,11,106,31,71,39,327,19,1*75,1730920426784
NMEA,$GLGSV,3,3,10,87,11,319,,85,00,000,,1*70,1730920426784
NMEA,$GAGSV,3,1,09,07,32,075,28,12,22,303,14,21,16,170,33,26,11,195,33,7*7B,1730920426787
NMEA,$GAGSV,3,2,09,27,41,115,31,29,67,354,30,30,25,054,23,10,09,323,,7*79,1730920426788
NMEA,$GAGSV,3,3,09,19,34,292,,7*4C,1730920426788
NMEA,$PQGSV,1,1,0,0*43,1730920426788
NMEA,$PQGSV,1,1,0,0*43,1730920426789
NMEA,$GNGSA,A,3,03,04,07,09,16,26,31,,,,,,1.1,0.7,0.8,1*36,1730920426793
NMEA,$GNGSA,A,3,69,71,73,80,,,,,,,,,1.1,0.7,0.8,2*38,1730920426794
NMEA,$GNGSA,A,3,07,21,27,30,,,,,,,,,1.1,0.7,0.8,3*3E,1730920426794
NMEA,$GNVTG,100.9,T,100.9,M,2.7,N,5.0,K,A*3D,1730920426794
NMEA,$GNRMC,191346.00,A,3725.610334,N,12210.614134,W,2.7,100.9,061124,15.0,E,A,V*77,1730920426794
NMEA,$GNGGA,191346.00,3725.610334,N,12210.614134,W,1,12,0.7,24.4,M,-27.9,M,,*7A,1730920426794
NMEA,$GPGSV,3,1,10,02,07,201,21,03,77,177,37,04,59,324,28,07,18,232,23,1*6F,1730920427784
NMEA,$GPGSV,3,2,10,09,33,296,21,16,39,118,38,26,38,071,30,28,04,049,18,1*6D,1730920427784
NMEA,$GPGSV,3,3,10,31,33,046,25,06,16,307,,1*67,1730920427784
NMEA,$GLGSV,3,1,10,74,10,194,25,70,61,049,25,86,15,272,14,73,52,174,37,1*75,1730920427784
NMEA,$GLGSV,3,2,10,80,56,053,35,79,07,026,22,69,11,106,32,71,39,327,19,1*75,1730920427785
NMEA,$GLGSV,3,3,10,87,11,319,,85,00,000,,1*70,1730920427785
NMEA,$GAGSV,3,1,09,07,32,075,28,12,22,303,14,21,16,170,32,26,11,195,34,7*7D,1730920427785
NMEA,$GAGSV,3,2,09,27,41,115,34,29,67,354,31,30,25,054,19,10,09,323,,7*74,1730920427785
NMEA,$GAGSV,3,3,09,19,34,292,,7*4C,1730920427790
NMEA,$PQGSV,1,1,0,0*43,1730920427790
NMEA,$PQGSV,1,1,0,0*43,1730920427790
NMEA,$GNGSA,A,3,02,03,04,07,09,16,26,31,,,,,1.0,0.7,0.8,1*35,1730920427794
NMEA,$GNGSA,A,3,69,71,73,80,,,,,,,,,1.0,0.7,0.8,2*39,1730920427795
NMEA,$GNGSA,A,3,07,21,27,30,,,,,,,,,1.0,0.7,0.8,3*3F,1730920427795
NMEA,$GNVTG,107.5,T,107.5,M,2.3,N,4.3,K,A*3B,1730920427795
NMEA,$GNRMC,191347.00,A,3725.610325,N,12210.613337,W,2.3,107.5,061124,15.0,E,A,V*7F,1730920427795
NMEA,$GNGGA,191347.00,3725.610325,N,12210.613337,W,1,12,0.7,25.1,M,-27.9,M,,*79,1730920427796
NMEA,$GPGSV,3,1,10,02,07,201,23,03,77,177,38,04,59,324,30,07,18,232,20,1*68,1730920428782
NMEA,$GPGSV,3,2,10,09,33,296,27,16,39,118,38,26,38,071,30,28,04,049,18,1*6B,1730920428783
NMEA,$GPGSV,3,3,10,31,33,046,26,06,16,307,,1*64,1730920428783
NMEA,$GLGSV,3,1,10,74,10,194,22,70,61,049,24,86,15,272,14,73,52,174,35,1*71,1730920428783
NMEA,$GLGSV,3,2,10,80,56,053,35,79,07,026,22,69,11,106,33,71,39,327,21,1*7F,1730920428783
NMEA,$GLGSV,3,3,10,87,11,319,,85,00,000,,1*70,1730920428783
NMEA,$GAGSV,3,1,09,07,32,075,29,12,22,303,14,21,16,170,31,26,11,195,35,7*7E,1730920428783
NMEA,$GAGSV,3,2,09,27,41,115,34,29,67,354,30,30,25,054,24,10,09,323,,7*7B,1730920428784
NMEA,$GAGSV,3,3,09,19,34,292,,7*4C,1730920428784
NMEA,$PQGSV,1,1,0,0*43,1730920428788
NMEA,$PQGSV,1,1,0,0*43,1730920428789
NMEA,$GNGSA,A,3,02,03,04,07,09,16,26,31,,,,,1.0,0.7,0.7,1*3A,1730920428792
NMEA,$GNGSA,A,3,69,71,73,80,,,,,,,,,1.0,0.7,0.7,2*36,1730920428792
NMEA,$GNGSA,A,3,07,21,26,27,29,30,,,,,,,1.0,0.7,0.7,3*3F,1730920428793
NMEA,$GNVTG,96.7,T,96.7,M,2.3,N,4.3,K,A*3B,1730920428793
NMEA,$GNRMC,191348.00,A,3725.610298,N,12210.612503,W,2.3,96.7,061124,15.0,E,A,V*4C,1730920428793
NMEA,$GNGGA,191348.00,3725.610298,N,12210.612503,W,1,12,0.7,28.0,M,-27.9,M,,*7D,1730920428793
NMEA,$GPGSV,3,1,10,02,07,201,21,03,77,177,38,04,59,324,28,07,18,232,21,1*62,1730920429781
NMEA,$GPGSV,3,2,10,09,33,296,24,16,39,118,38,26,38,071,30,28,04,049,16,1*66,1730920429782
NMEA,$GPGSV,3,3,10,31,33,046,27,06,16,307,,1*65,1730920429782
NMEA,$GLGSV,3,1,10,74,10,194,25,70,61,049,23,86,15,272,14,73,52,174,35,1*71,1730920429783
NMEA,$GLGSV,3,2,10,80,56,053,35,79,07,026,22,69,11,106,30,71,39,327,22,1*7F,1730920429783
NMEA,$GLGSV,3,3,10,87,11,319,,85,00,000,,1*70,1730920429784
NMEA,$GAGSV,3,1,09,07,32,075,28,12,22,303,15,21,16,170,36,26,11,195,31,7*7D,1730920429784
NMEA,$GAGSV,3,2,09,27,41,115,31,29,67,354,30,30,25,054,17,10,09,323,,7*7E,1730920429784
NMEA,$GAGSV,3,3,09,19,34,292,,7*4C,1730920429784
NMEA,$PQGSV,1,1,0,0*43,1730920429784
NMEA,$PQGSV,1,1,0,0*43,1730920429784
NMEA,$GNGSA,A,3,02,03,04,07,09,16,26,31,,,,,1.0,0.7,0.7,1*3A,1730920429787
NMEA,$GNGSA,A,3,69,71,73,80,,,,,,,,,1.0,0.7,0.7,2*36,1730920429788
NMEA,$GNGSA,A,3,07,21,26,27,29,30,,,,,,,1.0,0.7,0.7,3*3F,1730920429788
NMEA,$GNVTG,96.3,T,96.3,M,2.6,N,4.8,K,A*35,1730920429788
NMEA,$GNRMC,191349.00,A,3725.610401,N,12210.611727,W,2.6,96.3,061124,15.0,E,A,V*4D,1730920429789
NMEA,$GNGGA,191349.00,3725.610401,N,12210.611727,W,1,12,0.7,26.2,M,-27.9,M,,*71,1730920429789
NMEA,$GPGSV,3,1,10,02,07,201,24,03,77,177,37,04,59,324,27,07,18,232,22,1*64,1730920430782
NMEA,$GPGSV,3,2,10,09,33,296,26,16,39,118,38,26,38,071,29,28,04,049,19,1*63,1730920430782
NMEA,$GPGSV,3,3,10,31,33,046,29,06,16,307,,1*6B,1730920430782
NMEA,$GLGSV,3,1,10,74,10,194,26,70,61,049,24,86,15,272,14,73,52,174,36,1*76,1730920430783
NMEA,$GLGSV,3,2,10,80,56,053,35,79,07,026,14,69,11,106,26,71,39,327,25,1*7A,1730920430783
NMEA,$GLGSV,3,3,10,87,11,319,,85,00,000,,1*70,1730920430783
NMEA,$GAGSV,3,1,09,07,32,075,27,12,22,303,15,21,16,170,36,26,11,195,30,7*73,1730920430784
NMEA,$GAGSV,3,2,09,27,41,115,30,29,67,354,30,30,25,054,17,10,09,323,,7*7F,1730920430784
NMEA,$GAGSV,3,3,09,19,34,292,,7*4C,1730920430784
NMEA,$PQGSV,1,1,0,0*43,1730920430784
NMEA,$PQGSV,1,1,0,0*43,1730920430785
NMEA,$GNGSA,A,3,02,03,04,07,09,16,26,31,,,,,1.0,0.7,0.7,1*3A,1730920430790
NMEA,$GNGSA,A,3,69,71,73,80,,,,,,,,,1.0,0.7,0.7,2*36,1730920430790
NMEA,$GNGSA,A,3,07,21,26,27,29,30,,,,,,,1.0,0.7,0.7,3*3F,1730920430791
NMEA,$GNVTG,96.1,T,96.1,M,2.6,N,4.9,K,A*34,1730920430791
NMEA,$GNRMC,191350.00,A,3725.610503,N,12210.610951,W,2.6,96.1,061124,15.0,E,A,V*4A,1730920430791
NMEA,$GNGGA,191350.00,3725.610503,N,12210.610951,W,1,12,0.7,25.9,M,-27.9,M,,*7C,1730920430791
NMEA,$GPGSV,3,1,10,02,07,201,24,03,77,177,37,04,59,324,28,07,18,232,23,1*6A,1730920431785
NMEA,$GPGSV,3,2,10,09,33,296,25,16,39,118,38,26,38,071,31,28,04,049,19,1*69,1730920431786
NMEA,$GPGSV,3,3,10,31,33,046,28,06,16,307,,1*6A,1730920431787
NMEA,$GLGSV,3,1,10,74,10,194,26,70,61,049,25,86,15,272,14,73,52,174,34,1*75,1730920431788
NMEA,$GLGSV,3,2,10,80,56,053,34,79,07,026,22,69,11,106,23,71,39,327,24,1*7A,1730920431788
NMEA,$GLGSV,3,3,10,87,11,319,,85,00,000,,1*70,1730920431789
NMEA,$GAGSV,3,1,09,07,32,075,29,12,22,303,15,21,16,170,36,26,11,195,31,7*7C,1730920431789
NMEA,$GAGSV,3,2,09,27,41,115,31,29,67,354,30,30,25,054,17,10,09,323,,7*7E,1730920431789
NMEA,$GAGSV,3,3,09,19,34,292,,7*4C,1730920431789
NMEA,$PQGSV,1,1,0,0*43,1730920431790
NMEA,$PQGSV,1,1,0,0*43,1730920431796
NMEA,$GNGSA,A,3,02,03,04,07,09,16,26,31,,,,,1.0,0.7,0.7,1*3A,1730920431799
NMEA,$GNGSA,A,3,69,71,73,80,,,,,,,,,1.0,0.7,0.7,2*36,1730920431800
NMEA,$GNGSA,A,3,07,21,26,27,29,30,,,,,,,1.0,0.7,0.7,3*3F,1730920431800
NMEA,$GNVTG,109.3,T,109.3,M,2.1,N,3.9,K,A*34,1730920431800
NMEA,$GNRMC,191351.00,A,3725.610509,N,12210.610253,W,2.1,109.3,061124,15.0,E,A,V*7A,1730920431800
NMEA,$GNGGA,191351.00,3725.610509,N,12210.610253,W,1,12,0.7,26.0,M,-27.9,M,,*74,1730920431801
NMEA,$GPGSV,3,1,10,02,07,201,20,03,77,177,36,04,59,324,26,07,18,232,25,1*67,1730920432787
NMEA,$GPGSV,3,2,10,09,33,296,25,16,39,118,38,26,38,071,30,28,04,049,16,1*67,1730920432787
NMEA,$GPGSV,3,3,10,31,33,046,25,06,16,307,,1*67,1730920432787
NMEA,$GLGSV,3,1,10,74,10,194,26,70,61,049,24,86,15,272,14,73,52,174,33,1*73,1730920432788
NMEA,$GLGSV,3,2,10,80,56,053,35,79,07,026,20,69,11,106,26,71,39,327,21,1*79,1730920432788
NMEA,$GLGSV,3,3,10,87,11,319,,85,00,000,,1*70,1730920432789
NMEA,$GAGSV,3,1,09,07,32,075,26,12,22,303,15,21,16,170,34,26,11,195,31,7*71,1730920432789
NMEA,$GAGSV,3,2,09,27,41,115,28,29,67,354,31,30,25,054,20,10,09,323,,7*73,1730920432790
NMEA,$GAGSV,3,3,09,19,34,292,,7*4C,1730920432791
NMEA,$PQGSV,1,1,0,0*43,1730920432791
NMEA,$PQGSV,1,1,0,0*43,1730920432792
NMEA,$GNGSA,A,3,02,03,04,07,09,16,26,31,,,,,1.0,0.7,0.7,1*3A,1730920432798
NMEA,$GNGSA,A,3,69,71,73,80,,,,,,,,,1.0,0.7,0.7,2*36,1730920432798
NMEA,$GNGSA,A,3,07,21,26,27,29,30,,,,,,,1.0,0.7,0.7,3*3F,1730920432798
NMEA,$GNVTG,109.2,T,109.2,M,1.7,N,3.2,K,A*3A,1730920432799
NMEA,$GNRMC,191352.00,A,3725.610504,N,12210.609651,W,1.7,109.2,061124,15.0,E,A,V*7E,1730920432799
NMEA,$GNGGA,191352.00,3725.610504,N,12210.609651,W,1,12,0.7,25.3,M,-27.9,M,,*74,1730920432799
NMEA,$GPGSV,3,1,10,02,07,201,20,03,77,177,37,04,59,324,27,07,18,232,27,1*65,1730920433787
NMEA,$GPGSV,3,2,10,09,33,296,26,16,39,118,38,26,38,071,29,28,04,049,19,1*63,1730920433787
NMEA,$GPGSV,3,3,10,31,33,046,24,06,16,307,,1*66,1730920433787
NMEA,$GLGSV,3,1,10,74,10,194,26,70,61,049,23,86,15,272,14,73,52,174,36,1*71,1730920433787
NMEA,$GLGSV,3,2,10,80,56,053,35,79,07,026,20,69,11,106,30,71,39,327,25,1*7A,1730920433787
NMEA,$GLGSV,3,3,10,87,11,319,,85,00,000,,1*70,1730920433793
NMEA,$GAGSV,3,1,09,07,32,075,27,12,22,303,15,19,34,292,13,21,16,170,34,7*7F,1730920433793
NMEA,$GAGSV,3,2,09,26,11,195,31,27,41,115,31,29,67,354,31,30,25,054,19,7*70,1730920433794
NMEA,$GAGSV,3,3,09,10,09,323,,7*40,1730920433794
NMEA,$PQGSV,1,1,0,0*43,1730920433794
NMEA,$PQGSV,1,1,0,0*43,1730920433794
NMEA,$GNGSA,A,3,02,03,04,07,09,16,26,31,,,,,1.0,0.7,0.7,1*3A,1730920433799
NMEA,$GNGSA,A,3,69,71,73,80,,,,,,,,,1.0,0.7,0.7,2*36,1730920433799
NMEA,$GNGSA,A,3,07,21,26,27,29,30,,,,,,,1.0,0.7,0.7,3*3F,1730920433799
NMEA,$GNVTG,109.2,T,109.2,M,2.6,N,4.8,K,A*35,1730920433799
NMEA,$GNRMC,191353.00,A,3725.610603,N,12210.609030,W,2.6,109.2,061124,15.0,E,A,V*78,1730920433799
NMEA,$GNGGA,191353.00,3725.610603,N,12210.609030,W,1,12,0.7,23.6,M,-27.9,M,,*73,1730920433800
NMEA,$GPGSV,3,1,10,03,77,177,35,04,59,324,27,07,18,232,22,09,33,296,28,1*68,1730920434783
NMEA,$GPGSV,3,2,10,16,39,118,37,26,38,071,31,28,04,049,17,31,33,046,26,1*6F,1730920434783
NMEA,$GPGSV,3,3,10,02,07,201,,06,16,307,,1*66,1730920434783
NMEA,$GLGSV,3,1,10,74,10,194,23,70,61,049,23,86,15,272,20,73,52,174,39,1*7C,1730920434783
NMEA,$GLGSV,3,2,10,80,56,053,34,79,07,026,20,69,11,106,31,71,39,327,25,1*7A,1730920434784
NMEA,$GLGSV,3,3,10,87,11,319,,85,00,000,,1*70,1730920434784
NMEA,$GAGSV,3,1,09,07,32,075,24,12,22,303,17,19,34,292,21,21,16,170,32,7*79,1730920434784
NMEA,$GAGSV,3,2,09,26,11,195,33,27,41,115,32,29,67,354,30,30,25,054,19,7*70,1730920434785
NMEA,$GAGSV,3,3,09,10,09,323,,7*40,1730920434785
NMEA,$PQGSV,1,1,0,0*43,1730920434785
NMEA,$PQGSV,1,1,0,0*43,1730920434785
NMEA,$GNGSA,A,3,02,03,04,07,09,16,26,31,,,,,1.0,0.7,0.8,1*35,1730920434795
NMEA,$GNGSA,A,3,69,71,73,80,,,,,,,,,1.0,0.7,0.8,2*39,1730920434796
NMEA,$GNGSA,A,3,07,19,21,26,27,29,,,,,,,1.0,0.7,0.8,3*3B,1730920434796
NMEA,$GNVTG,101.1,T,101.1,M,2.6,N,4.8,K,A*35,1730920434797
NMEA,$GNRMC,191354.00,A,3725.610710,N,12210.608182,W,2.6,101.1,061124,15.0,E,A,V*7E,1730920434797
NMEA,$GNGGA,191354.00,3725.610710,N,12210.608182,W,1,12,0.7,24.3,M,-27.9,M,,*7C,1730920434797
NMEA,$GPGSV,3,1,10,02,07,201,29,03,77,177,34,04,59,324,26,07,18,232,27,1*6E,1730920435782
NMEA,$GPGSV,3,2,10,09,33,296,29,16,39,118,37,26,38,071,29,28,04,049,18,1*62,1730920435783
NMEA,$GPGSV,3,3,10,31,33,046,27,06,16,307,,1*65,1730920435783
NMEA,$GLGSV,3,1,10,74,10,194,23,70,61,049,24,86,15,272,20,73,52,174,40,1*75,1730920435783
NMEA,$GLGSV,3,2,10,80,56,053,33,79,07,026,15,69,11,106,30,71,39,327,26,1*79,1730920435783
NMEA,$GLGSV,3,3,10,87,11,319,,85,00,000,,1*70,1730920435783
NMEA,$GAGSV,3,1,09,07,32,075,25,12,22,303,17,19,34,292,23,21,16,170,28,7*71,1730920435784
NMEA,$GAGSV,3,2,09,26,11,195,36,27,41,115,33,29,67,354,31,30,25,054,19,7*75,1730920435784
NMEA,$GAGSV,3,3,09,10,09,323,,7*40,1730920435784
NMEA,$PQGSV,1,1,0,0*43,1730920435785
NMEA,$PQGSV,1,1,0,0*43,1730920435785
NMEA,$GNGSA,A,3,02,03,04,07,09,16,26,31,,,,,1.0,0.7,0.8,1*35,1730920435789
NMEA,$GNGSA,A,3,69,71,73,80,,,,,,,,,1.0,0.7,0.8,2*39,1730920435789
NMEA,$GNGSA,A,3,07,19,21,26,27,29,,,,,,,1.0,0.7,0.8,3*3B,1730920435789
NMEA,$GNVTG,99.0,T,99.0,M,2.5,N,4.6,K,A*38,1730920435790
NMEA,$GNRMC,191355.00,A,3725.610792,N,12210.607360,W,2.5,99.0,061124,15.0,E,A,V*46,1730920435790
NMEA,$GNGGA,191355.00,3725.610792,N,12210.607360,W,1,12,0.7,23.6,M,-27.9,M,,*74,1730920435790
NMEA,$GPGSV,3,1,10,02,07,201,28,03,77,177,35,04,59,324,27,07,18,232,29,1*61,1730920436784
NMEA,$GPGSV,3,2,10,09,33,296,29,16,39,118,38,26,38,071,30,28,04,049,18,1*65,1730920436785
NMEA,$GPGSV,3,3,10,31,33,046,27,06,16,307,,1*65,1730920436785
NMEA,$GLGSV,3,1,10,74,10,194,24,70,61,049,23,86,15,272,20,73,52,174,41,1*74,1730920436786
NMEA,$GLGSV,3,2,10,80,56,053,34,79,07,026,20,69,11,106,27,71,39,327,24,1*7C,1730920436786
NMEA,$GLGSV,3,3,10,87,11,319,,85,00,000,,1*70,1730920436788
NMEA,$GAGSV,3,1,09,07,32,075,26,12,22,303,17,19,34,292,22,21,16,170,30,7*7A,1730920436788
NMEA,$GAGSV,3,2,09,26,11,195,35,27,41,115,31,29,67,354,30,30,25,054,19,7*75,1730920436789
NMEA,$GAGSV,3,3,09,10,09,323,,7*40,1730920436789
NMEA,$PQGSV,1,1,0,0*43,1730920436791
NMEA,$PQGSV,1,1,0,0*43,1730920436791
NMEA,$GNGSA,A,3,02,03,04,07,09,16,26,31,,,,,1.0,0.7,0.8,1*35,1730920436796
NMEA,$GNGSA,A,3,69,71,73,80,,,,,,,,,1.0,0.7,0.8,2*39,1730920436797
NMEA,$GNGSA,A,3,07,19,21,26,27,29,,,,,,,1.0,0.7,0.8,3*3B,1730920436797
NMEA,$GNVTG,102.8,T,102.8,M,2.1,N,3.9,K,A*34,1730920436798
NMEA,$GNRMC,191356.00,A,3725.610776,N,12210.606614,W,2.1,102.8,061124,15.0,E,A,V*77,1730920436798
NMEA,$GNGGA,191356.00,3725.610776,N,12210.606614,W,1,12,0.7,24.0,M,-27.9,M,,*7B,1730920436798
NMEA,$GPGSV,3,1,10,02,07,201,24,03,77,177,37,04,59,324,27,07,18,232,29,1*6F,1730920437782
NMEA,$GPGSV,3,2,10,09,33,296,27,16,39,118,34,26,38,071,27,28,04,049,18,1*61,1730920437783
NMEA,$GPGSV,3,3,10,31,33,046,24,06,16,307,,1*66,1730920437783
NMEA,$GLGSV,3,1,10,74,10,194,26,70,61,049,22,86,15,272,20,73,52,174,41,1*77,1730920437784
NMEA,$GLGSV,3,2,10,80,56,053,32,79,07,026,19,69,11,106,28,71,39,327,24,1*7F,1730920437784
NMEA,$GLGSV,3,3,10,87,11,319,,85,00,000,,1*70,1730920437785
NMEA,$GAGSV,3,1,09,07,32,075,23,12,22,303,17,19,34,292,21,21,16,170,31,7*7D,1730920437785
NMEA,$GAGSV,3,2,09,26,11,195,35,27,41,115,34,29,67,354,30,30,25,054,15,7*7C,1730920437785
NMEA,$GAGSV,3,3,09,10,09,323,,7*40,1730920437787
NMEA,$PQGSV,1,1,0,0*43,1730920437787
NMEA,$PQGSV,1,1,0,0*43,1730920437788
NMEA,$GNGSA,A,3,02,03,04,07,09,16,26,31,,,,,1.0,0.7,0.8,1*35,1730920437792
NMEA,$GNGSA,A,3,69,71,73,80,,,,,,,,,1.0,0.7,0.8,2*39,1730920437793
NMEA,$GNGSA,A,3,07,19,21,26,27,29,,,,,,,1.0,0.7,0.8,3*3B,1730920437793
NMEA,$GNVTG,102.8,T,102.8,M,2.1,N,3.8,K,A*35,1730920437793
NMEA,$GNRMC,191357.00,A,3725.610726,N,12210.605904,W,2.1,102.8,061124,15.0,E,A,V*7E,1730920437793
NMEA,$GNGGA,191357.00,3725.610726,N,12210.605904,W,1,12,0.7,24.0,M,-27.9,M,,*72,1730920437794
NMEA,$GPGSV,3,1,10,02,07,201,24,03,77,177,35,04,59,324,25,07,18,232,32,1*65,1730920438786
NMEA,$GPGSV,3,2,10,09,33,296,28,16,39,118,38,26,38,071,30,28,04,049,18,1*64,1730920438787
NMEA,$GPGSV,3,3,10,31,33,046,21,06,16,307,,1*63,1730920438787
NMEA,$GLGSV,3,1,10,74,10,194,24,70,61,049,24,86,15,272,13,73,52,174,41,1*73,1730920438787
NMEA,$GLGSV,3,2,10,80,56,053,32,79,07,026,19,69,11,106,24,87,11,319,15,1*7F,1730920438787
NMEA,$GLGSV,3,3,10,71,39,327,25,85,00,000,,1*79,1730920438787
NMEA,$GAGSV,3,1,09,07,32,075,24,12,22,303,17,19,34,292,21,21,16,170,33,7*78,1730920438787
NMEA,$GAGSV,3,2,09,26,11,195,26,27,41,115,31,29,67,354,30,30,25,054,15,7*7B,1730920438787
NMEA,$GAGSV,3,3,09,10,09,323,,7*40,1730920438789
NMEA,$PQGSV,1,1,0,0*43,1730920438789
NMEA,$PQGSV,1,1,0,0*43,1730920438790
NMEA,$GNGSA,A,3,02,03,04,07,09,16,26,31,,,,,1.0,0.7,0.8,1*35,1730920438793
NMEA,$GNGSA,A,3,69,71,73,80,,,,,,,,,1.0,0.7,0.8,2*39,1730920438793
NMEA,$GNGSA,A,3,07,19,21,26,27,29,,,,,,,1.0,0.7,0.8,3*3B,1730920438793
NMEA,$GNVTG,102.8,T,102.8,M,1.8,N,3.4,K,A*33,1730920438794
NMEA,$GNRMC,191358.00,A,3725.610782,N,12210.605242,W,1.8,102.8,061124,15.0,E,A,V*7C,1730920438794
NMEA,$GNGGA,191358.00,3725.610782,N,12210.605242,W,1,12,0.7,22.5,M,-27.9,M,,*79,1730920438795
NMEA,$GPGSV,3,1,10,02,07,201,20,03,77,177,34,04,59,324,24,06,16,307,16,1*6F,1730920439785
NMEA,$GPGSV,3,2,10,07,18,232,34,09,33,296,28,16,39,118,34,26,38,071,30,1*68,1730920439786
NMEA,$GPGSV,3,3,10,28,04,049,15,31,33,046,19,1*6A,1730920439792
NMEA,$GLGSV,3,1,10,74,10,194,24,70,61,049,22,86,15,272,13,73,52,174,40,1*74,1730920439792
NMEA,$GLGSV,3,2,10,80,56,053,32,79,07,026,16,69,11,106,25,87,11,319,14,1*70,1730920439793
NMEA,$GLGSV,3,3,10,71,39,327,25,85,00,000,,1*79,1730920439793
NMEA,$GAGSV,3,1,09,07,32,075,21,12,22,303,17,19,34,292,21,21,16,170,34,7*7A,1730920439793
NMEA,$GAGSV,3,2,09,26,11,195,29,27,41,115,33,29,67,354,30,30,25,054,17,7*74,1730920439793
NMEA,$GAGSV,3,3,09,10,09,323,,7*40,1730920439794
NMEA,$PQGSV,1,1,0,0*43,1730920439794
NMEA,$PQGSV,1,1,0,0*43,1730920439794
NMEA,$GNGSA,A,3,02,03,04,07,09,16,26,31,,,,,1.0,0.7,0.8,1*35,1730920439799
NMEA,$GNGSA,A,3,69,71,73,80,,,,,,,,,1.0,0.7,0.8,2*39,1730920439799
NMEA,$GNGSA,A,3,07,19,21,26,27,29,,,,,,,1.0,0.7,0.8,3*3B,1730920439799
NMEA,$GNVTG,102.7,T,102.7,M,2.4,N,4.4,K,A*3B,1730920439799
NMEA,$GNRMC,191359.00,A,3725.610849,N,12210.604572,W,2.4,102.7,061124,15.0,E,A,V*70,1730920439799
NMEA,$GNGGA,191359.00,3725.610849,N,12210.604572,W,1,12,0.7,21.4,M,-27.9,M,,*77,1730920439800
NMEA,$GPGSV,3,1,10,02,07,201,27,03,77,177,34,04,59,324,26,06,16,307,16,1*6A,1730920440784
NMEA,$GPGSV,3,2,10,07,18,232,33,09,33,296,27,16,39,118,39,26,38,071,21,1*6D,1730920440784
NMEA,$GPGSV,3,3,10,28,04,049,15,31,33,046,21,1*61,1730920440785
NMEA,$GLGSV,3,1,10,74,10,194,26,70,61,049,22,86,15,272,13,73,52,174,35,1*74,1730920440786
NMEA,$GLGSV,3,2,10,80,56,053,28,79,07,026,19,69,11,106,27,87,11,319,13,1*71,1730920440786
NMEA,$GLGSV,3,3,10,71,39,327,24,85,00,000,,1*78,1730920440787
NMEA,$GAGSV,3,1,09,07,32,075,20,12,22,303,17,19,34,292,23,21,16,170,36,7*7B,1730920440787
NMEA,$GAGSV,3,2,09,26,11,195,29,27,41,115,37,29,67,354,23,30,25,054,17,7*72,1730920440788
NMEA,$GAGSV,3,3,09,10,09,323,,7*40,1730920440788
NMEA,$PQGSV,1,1,0,0*43,1730920440788
NMEA,$PQGSV,1,1,0,0*43,1730920440789
NMEA,$GNGSA,A,3,02,03,04,07,09,16,26,31,,,,,1.0,0.7,0.8,1*35,1730920440796
NMEA,$GNGSA,A,3,69,71,73,80,,,,,,,,,1.0,0.7,0.8,2*39,1730920440796
NMEA,$GNGSA,A,3,07,19,21,26,27,29,,,,,,,1.0,0.7,0.8,3*3B,1730920440796
NMEA,$GNVTG,102.7,T,102.7,M,1.9,N,3.5,K,A*33,1730920440796
NMEA,$GNRMC,191400.00,A,3725.610768,N,12210.604002,W,1.9,102.7,061124,15.0,E,A,V*7B,1730920440797
NMEA,$GNGGA,191400.00,3725.610768,N,12210.604002,W,1,12,0.7,21.2,M,-27.9,M,,*74,1730920440797
NMEA,$GPGSV,3,1,10,02,07,201,25,03,77,177,30,06,16,307,16,07,18,232,38,1*63,1730920441788
NMEA,$GPGSV,3,2,10,09,33,296,29,16,39,118,35,26,38,071,26,28,04,049,19,1*6E,1730920441791
NMEA,$GPGSV,3,3,10,04,59,324,,31,33,046,,1*68,1730920441791
NMEA,$GLGSV,3,1,10,74,10,194,23,70,61,049,17,86,15,272,17,73,52,174,36,1*70,1730920441792
NMEA,$GLGSV,3,2,10,80,56,053,28,79,07,026,22,69,11,106,31,87,11,319,14,1*79,1730920441793
NMEA,$GLGSV,3,3,10,71,39,327,25,85,00,000,,1*79,1730920441793
NMEA,$GAGSV,3,1,09,07,32,075,24,12,22,303,13,19,34,292,21,21,16,170,28,7*76,1730920441796
NMEA,$GAGSV,3,2,09,26,11,195,30,27,41,115,32,29,67,354,25,30,25,054,17,7*79,1730920441796
NMEA,$GAGSV,3,3,09,10,09,323,,7*40,1730920441796
NMEA,$PQGSV,1,1,0,0*43,1730920441797
NMEA,$PQGSV,1,1,0,0*43,1730920441797
NMEA,$GNGSA,A,3,02,03,04,07,09,16,26,31,,,,,1.0,0.7,0.8,1*35,1730920441803
NMEA,$GNGSA,A,3,69,71,73,80,,,,,,,,,1.0,0.7,0.8,2*39,1730920441803
NMEA,$GNGSA,A,3,07,19,21,26,27,29,,,,,,,1.0,0.7,0.8,3*3B,1730920441804
NMEA,$GNVTG,,T,,M,0.0,N,0.0,K,A*3D,1730920441804
NMEA,$GNRMC,191401.00,A,3725.610908,N,12210.604285,W,0.0,,061124,15.0,E,A,V*5D,1730920441804
NMEA,$GNGGA,191401.00,3725.610908,N,12210.604285,W,1,12,0.7,21.1,M,-27.9,M,,*73,1730920441804
NMEA,$GPGSV,3,1,10,02,07,201,24,03,77,177,31,04,59,324,21,06,16,307,16,1*6B,1730920442785
NMEA,$GPGSV,3,2,10,07,18,232,39,09,33,296,21,16,39,118,33,26,38,071,26,1*6C,1730920442785
NMEA,$GPGSV,3,3,10,28,04,049,21,31,33,046,19,1*6D,1730920442785
NMEA,$GLGSV,3,1,10,74,10,194,19,70,61,049,17,86,15,272,21,73,52,174,33,1*79,1730920442786
NMEA,$GLGSV,3,2,10,80,56,053,28,79,07,026,23,69,11,106,31,87,11,319,13,1*7F,1730920442786
NMEA,$GLGSV,3,3,10,71,39,327,21,85,00,000,,1*7D,1730920442786
NMEA,$GAGSV,3,1,09,07,32,075,23,12,22,303,19,19,34,292,21,21,16,170,29,7*7A,1730920442787
NMEA,$GAGSV,3,2,09,26,11,195,29,27,41,115,28,29,67,354,23,30,25,054,17,7*7C,1730920442787
NMEA,$GAGSV,3,3,09,10,09,323,,7*40,1730920442787
NMEA,$PQGSV,1,1,0,0*43,1730920442788
NMEA,$PQGSV,1,1,0,0*43,1730920442788
NMEA,$GNGSA,A,3,02,03,04,07,09,16,26,31,,,,,1.0,0.6,0.7,1*3B,1730920442795
NMEA,$GNGSA,A,3,69,71,73,80,86,,,,,,,,1.0,0.6,0.7,2*39,1730920442796
NMEA,$GNGSA,A,3,07,19,21,26,27,29,,,,,,,1.0,0.6,0.7,3*35,1730920442796
NMEA,$GNVTG,,T,,M,0.0,N,0.0,K,A*3D,1730920442796
NMEA,$GNRMC,191402.00,A,3725.611065,N,12210.604691,W,0.0,,061124,15.0,E,A,V*5C,1730920442797
NMEA,$GNGGA,191402.00,3725.611065,N,12210.604691,W,1,12,0.6,22.0,M,-27.9,M,,*71,1730920442797
NMEA,$GPGSV,3,1,10,02,07,201,26,03,77,177,28,07,18,232,41,09,33,296,24,1*67,1730920443782
NMEA,$GPGSV,3,2,10,16,39,118,33,26,38,071,23,28,04,049,21,31,33,046,19,1*61,1730920443783
NMEA,$GPGSV,3,3,10,04,59,324,,06,16,307,,1*6D,1730920443783
NMEA,$GLGSV,3,1,10,74,10,194,19,70,61,049,18,86,15,272,21,73,52,174,31,1*74,1730920443783
NMEA,$GLGSV,3,2,10,80,56,053,30,79,07,026,24,69,11,106,34,87,11,319,13,1*74,1730920443784
NMEA,$GLGSV,3,3,10,71,39,327,21,85,00,000,,1*7D,1730920443784
NMEA,$GAGSV,3,1,09,07,32,075,21,12,22,303,19,19,34,292,18,21,16,170,24,7*7F,1730920443784
NMEA,$GAGSV,3,2,09,26,11,195,26,27,41,115,27,29,67,354,23,30,25,054,17,7*7C,1730920443784
NMEA,$GAGSV,3,3,09,10,09,323,,7*40,1730920443784
NMEA,$PQGSV,1,1,0,0*43,1730920443785
NMEA,$PQGSV,1,1,0,0*43,1730920443785
NMEA,$GNGSA,A,3,02,03,04,07,09,16,26,31,,,,,1.0,0.6,0.7,1*3B,1730920443789
NMEA,$GNGSA,A,3,69,71,73,80,86,,,,,,,,1.0,0.6,0.7,2*39,1730920443789
NMEA,$GNGSA,A,3,07,19,21,26,27,29,,,,,,,1.0,0.6,0.7,3*35,1730920443790
NMEA,$GNVTG,,T,,M,0.0,N,0.0,K,A*3D,1730920443790
NMEA,$GNRMC,191403.00,A,3725.611163,N,12210.605061,W,0.0,,061124,15.0,E,A,V*52,1730920443790
NMEA,$GNGGA,191403.00,3725.611163,N,12210.605061,W,1,12,0.6,21.7,M,-27.9,M,,*7B,1730920443790
NMEA,$GPGSV,3,1,10,02,07,201,28,03,77,177,29,06,16,307,18,07,18,232,39,1*69,1730920444784
NMEA,$GPGSV,3,2,10,09,33,296,32,16,39,118,33,26,38,071,28,28,04,049,21,1*67,1730920444784
NMEA,$GPGSV,3,3,10,31,33,046,18,04,59,324,,1*61,1730920444785
NMEA,$GLGSV,3,1,10,74,10,194,21,70,61,049,18,86,15,272,17,73,52,174,32,1*79,1730920444785
NMEA,$GLGSV,3,2,10,80,56,053,30,79,07,026,20,69,11,106,37,87,11,319,13,1*73,1730920444785
NMEA,$GLGSV,3,3,10,71,39,327,24,85,00,000,,1*78,1730920444786
NMEA,$GAGSV,3,1,09,07,32,075,23,12,22,303,19,19,34,292,26,21,16,170,28,7*7C,1730920444786
NMEA,$GAGSV,3,2,09,26,11,195,28,27,41,115,30,29,67,354,23,30,25,054,17,7*74,1730920444786
NMEA,$GAGSV,3,3,09,10,09,323,,7*40,1730920444786
NMEA,$PQGSV,1,1,0,0*43,1730920444787
NMEA,$PQGSV,1,1,0,0*43,1730920444787
NMEA,$GNGSA,A,3,02,03,04,07,09,16,26,31,,,,,1.0,0.6,0.7,1*3B,1730920444792
NMEA,$GNGSA,A,3,69,71,73,80,86,,,,,,,,1.0,0.6,0.7,2*39,1730920444792
NMEA,$GNGSA,A,3,07,19,21,26,27,29,,,,,,,1.0,0.6,0.7,3*35,1730920444792
NMEA,$GNVTG,,T,,M,0.0,N,0.0,K,A*3D,1730920444793
NMEA,$GNRMC,191404.00,A,3725.611235,N,12210.605452,W,0.0,,061124,15.0,E,A,V*51,1730920444793
NMEA,$GNGGA,191404.00,3725.611235,N,12210.605452,W,1,12,0.6,21.4,M,-27.9,M,,*7B,1730920444793
NMEA,$GPGSV,3,1,10,02,07,201,18,03,77,177,26,04,59,324,26,06,16,307,18,1*6B,1730920445785
NMEA,$GPGSV,3,2,10,07,18,232,32,09,33,296,25,16,39,118,24,26,38,071,17,1*67,1730920445785
NMEA,$GPGSV,3,3,10,28,04,049,21,31,33,046,18,1*6C,1730920445785
NMEA,$GLGSV,3,1,10,74,10,194,21,70,61,049,18,86,15,272,17,73,52,174,26,1*7C,1730920445787
NMEA,$GLGSV,3,2,10,80,56,053,16,79,07,026,20,69,11,106,28,87,11,319,12,1*78,1730920445787
NMEA,$GLGSV,3,3,10,71,39,327,21,85,00,000,,1*7D,1730920445788
NMEA,$GAGSV,3,1,09,07,32,075,23,12,22,303,19,19,34,292,26,21,16,170,19,7*7E,1730920445788
NMEA,$GAGSV,3,2,09,26,11,195,20,27,41,115,20,29,67,354,21,30,25,054,17,7*7F,1730920445788
NMEA,$GAGSV,3,3,09,10,09,323,,7*40,1730920445788
NMEA,$PQGSV,1,1,0,0*43,1730920445789
NMEA,$PQGSV,1,1,0,0*43,1730920445790
NMEA,$GNGSA,A,3,02,03,04,07,09,16,26,31,,,,,1.0,0.6,0.7,1*3B,1730920445794
NMEA,$GNGSA,A,3,69,71,73,80,86,,,,,,,,1.0,0.6,0.7,2*39,1730920445794
NMEA,$GNGSA,A,3,07,19,21,26,27,29,,,,,,,1.0,0.6,0.7,3*35,1730920445795
NMEA,$GNVTG,,T,,M,0.0,N,0.0,K,A*3D,1730920445795
NMEA,$GNRMC,191405.00,A,3725.611292,N,12210.605788,W,0.0,,061124,15.0,E,A,V*59,1730920445795
NMEA,$GNGGA,191405.00,3725.611292,N,12210.605788,W,1,12,0.6,21.3,M,-27.9,M,,*74,1730920445796
NMEA,$GPGSV,3,1,10,02,07,201,18,03,77,177,29,04,59,324,30,06,16,307,18,1*63,1730920446785
NMEA,$GPGSV,3,2,10,07,18,232,25,09,33,296,23,16,39,118,20,26,38,071,16,1*62,1730920446785
NMEA,$GPGSV,3,3,10,28,04,049,21,31,33,046,18,1*6C,1730920446789
NMEA,$GLGSV,3,1,10,74,10,194,21,70,61,049,18,86,15,272,17,73,52,174,24,1*7E,1730920446790
NMEA,$GLGSV,3,2,10,80,56,053,15,79,07,026,20,69,11,106,28,87,11,319,12,1*7B,1730920446790
NMEA,$GLGSV,3,3,10,71,39,327,18,85,00,000,,1*77,1730920446791
NMEA,$GAGSV,3,1,09,07,32,075,23,12,22,303,19,19,34,292,17,21,16,170,23,7*75,1730920446791
NMEA,$GAGSV,3,2,09,26,11,195,16,27,41,115,20,29,67,354,24,30,25,054,17,7*7F,1730920446791
NMEA,$GAGSV,3,3,09,10,09,323,,7*40,1730920446792
NMEA,$PQGSV,1,1,0,0*43,1730920446792
NMEA,$PQGSV,1,1,0,0*43,1730920446792
NMEA,$GNGSA,A,3,02,03,04,07,09,16,26,,,,,,1.0,0.7,0.8,1*37,1730920446797
NMEA,$GNGSA,A,3,69,71,73,80,86,,,,,,,,1.0,0.7,0.8,2*37,1730920446797
NMEA,$GNGSA,A,3,07,19,21,26,27,29,,,,,,,1.0,0.7,0.8,3*3B,1730920446797
NMEA,$GNVTG,,T,,M,0.0,N,0.0,K,A*3D,1730920446798
NMEA,$GNRMC,191406.00,A,3725.611427,N,12210.606015,W,0.0,,061124,15.0,E,A,V*52,1730920446798
NMEA,$GNGGA,191406.00,3725.611427,N,12210.606015,W,1,12,0.7,21.0,M,-27.9,M,,*7D,1730920446798
NMEA,$GPGSV,3,1,10,02,07,201,18,03,77,177,27,04,59,324,27,06,16,307,18,1*6B,1730920447782
NMEA,$GPGSV,3,2,10,07,18,232,26,09,33,296,29,16,39,118,20,26,38,071,16,1*6B,1730920447783
NMEA,$GPGSV,3,3,10,28,04,049,21,31,33,046,18,1*6C,1730920447784
NMEA,$GLGSV,3,1,10,74,10,194,16,70,61,049,18,86,15,272,17,73,52,174,25,1*7B,1730920447785
NMEA,$GLGSV,3,2,10,80,56,053,21,79,07,026,20,69,11,106,22,87,11,319,12,1*76,1730920447785
NMEA,$GLGSV,3,3,10,71,39,327,18,85,00,000,,1*77,1730920447785
NMEA,$GAGSV,3,1,09,07,32,075,23,12,22,303,19,19,34,292,23,21,16,170,23,7*72,1730920447786
NMEA,$GAGSV,3,2,09,26,11,195,21,27,41,115,20,29,67,354,27,30,25,054,17,7*78,1730920447786
NMEA,$GAGSV,3,3,09,10,09,323,,7*40,1730920447786
NMEA,$PQGSV,1,1,0,0*43,1730920447786
NMEA,$PQGSV,1,1,0,0*43,1730920447787
NMEA,$GNGSA,A,3,02,03,04,07,09,16,26,,,,,,1.0,0.7,0.8,1*37,1730920447795
NMEA,$GNGSA,A,3,69,71,73,80,86,,,,,,,,1.0,0.7,0.8,2*37,1730920447796
NMEA,$GNGSA,A,3,07,19,21,26,27,29,,,,,,,1.0,0.7,0.8,3*3B,1730920447796
NMEA,$GNVTG,,T,,M,0.0,N,0.0,K,A*3D,1730920447796
NMEA,$GNRMC,191407.00,A,3725.611585,N,12210.606230,W,0.0,,061124,15.0,E,A,V*5F,1730920447796
NMEA,$GNGGA,191407.00,3725.611585,N,12210.606230,W,1,12,0.7,20.5,M,-27.9,M,,*74,1730920447797
NMEA,$GPGSV,3,1,10,02,07,201,18,03,77,177,29,04,59,324,25,06,16,307,18,1*67,1730920448781
NMEA,$GPGSV,3,2,10,07,18,232,25,09,33,296,30,16,39,118,24,26,38,071,15,1*67,1730920448781
NMEA,$GPGSV,3,3,10,28,04,049,21,31,33,046,18,1*6C,1730920448782
NMEA,$GLGSV,3,1,10,74,10,194,16,70,61,049,18,86,15,272,17,73,52,174,30,1*7F,1730920448782
NMEA,$GLGSV,3,2,10,80,56,053,20,79,07,026,20,69,11,106,27,87,11,319,12,1*72,1730920448782
NMEA,$GLGSV,3,3,10,71,39,327,13,85,00,000,,1*7C,1730920448782
NMEA,$GAGSV,3,1,09,07,32,075,23,12,22,303,19,19,34,292,24,21,16,170,24,7*72,1730920448783
NMEA,$GAGSV,3,2,09,26,11,195,22,27,41,115,15,29,67,354,28,30,25,054,17,7*72,1730920448783
NMEA,$GAGSV,3,3,09,10,09,323,,7*40,1730920448783
NMEA,$PQGSV,1,1,0,0*43,1730920448783
NMEA,$PQGSV,1,1,0,0*43,1730920448783
NMEA,$GNGSA,A,3,02,03,04,07,09,16,26,,,,,,1.0,0.7,0.8,1*37,1730920448794
NMEA,$GNGSA,A,3,69,71,73,80,86,,,,,,,,1.0,0.7,0.8,2*37,1730920448794
NMEA,$GNGSA,A,3,07,19,21,26,27,29,,,,,,,1.0,0.7,0.8,3*3B,1730920448795
NMEA,$GNVTG,,T,,M,0.0,N,0.0,K,A*3D,1730920448802
NMEA,$GNRMC,191408.00,A,3725.611671,N,12210.606361,W,0.0,,061124,15.0,E,A,V*5D,1730920448802
NMEA,$GNGGA,191408.00,3725.611671,N,12210.606361,W,1,12,0.7,20.6,M,-27.9,M,,*75,1730920448803
NMEA,$GPGSV,3,1,10,02,07,201,18,03,77,177,28,04,59,324,27,06,16,307,18,1*64,1730920449788
NMEA,$GPGSV,3,2,10,07,18,232,22,09,33,296,31,16,39,118,22,26,38,071,15,1*67,1730920449788
NMEA,$GPGSV,3,3,10,28,04,049,21,31,33,046,18,1*6C,1730920449788
NMEA,$GLGSV,3,1,10,74,10,194,17,70,61,049,18,86,15,272,17,73,52,174,24,1*7B,1730920449788
NMEA,$GLGSV,3,2,10,80,56,053,17,79,07,026,20,69,11,106,23,87,11,319,12,1*72,1730920449789
NMEA,$GLGSV,3,3,10,71,39,327,19,85,00,000,,1*76,1730920449789
NMEA,$GAGSV,3,1,09,07,32,075,23,12,22,303,19,19,34,292,23,21,16,170,25,7*74,1730920449789
NMEA,$GAGSV,3,2,09,26,11,195,22,27,41,115,18,29,67,354,28,30,25,054,17,7*7F,1730920449790
NMEA,$GAGSV,3,3,09,10,09,323,,7*40,1730920449790
NMEA,$PQGSV,1,1,0,0*43,1730920449791
NMEA,$PQGSV,1,1,0,0*43,1730920449791
NMEA,$GNGSA,A,3,02,03,04,07,09,16,26,,,,,,1.0,0.7,0.8,1*37,1730920449797
NMEA,$GNGSA,A,3,69,71,73,80,,,,,,,,,1.0,0.7,0.8,2*39,1730920449797
NMEA,$GNGSA,A,3,07,19,21,26,27,29,,,,,,,1.0,0.7,0.8,3*3B,1730920449797
NMEA,$GNVTG,,T,,M,0.0,N,0.0,K,A*3D,1730920449798
NMEA,$GNRMC,191409.00,A,3725.611700,N,12210.606540,W,0.0,,061124,15.0,E,A,V*5E,1730920449798
NMEA,$GNGGA,191409.00,3725.611700,N,12210.606540,W,1,12,0.7,20.5,M,-27.9,M,,*75,1730920449798
NMEA,$GPGSV,3,1,10,02,07,201,18,03,77,177,28,04,59,324,27,06,16,307,18,1*64,1730920450787
NMEA,$GPGSV,3,2,10,07,18,232,19,09,33,296,33,16,39,118,23,26,38,071,16,1*6F,1730920450788
NMEA,$GPGSV,3,3,10,28,04,049,21,31,33,046,18,1*6C,1730920450789
NMEA,$GLGSV,3,1,10,74,10,194,19,70,61,049,18,86,15,272,17,73,52,174,26,1*77,1730920450789
NMEA,$GLGSV,3,2,10,80,56,053,19,79,07,026,20,69,11,106,24,87,11,319,12,1*7B,1730920450790
NMEA,$GLGSV,3,3,10,71,39,327,18,85,00,000,,1*77,1730920450790
NMEA,$GAGSV,3,1,09,07,32,075,13,12,22,303,19,19,34,292,23,21,16,170,26,7*74,1730920450791
NMEA,$GAGSV,3,2,09,26,11,195,22,27,41,115,21,29,67,354,29,30,25,054,17,7*74,1730920450791
NMEA,$GAGSV,3,3,09,10,09,323,,7*40,1730920450792
NMEA,$PQGSV,1,1,0,0*43,1730920450792
NMEA,$PQGSV,1,1,0,0*43,1730920450793
NMEA,$GNGSA,A,3,02,03,04,07,09,16,26,,,,,,1.0,0.7,0.8,1*37,1730920450802
NMEA,$GNGSA,A,3,69,71,73,80,,,,,,,,,1.0,0.7,0.8,2*39,1730920450803
NMEA,$GNGSA,A,3,07,19,21,26,27,29,,,,,,,1.0,0.7,0.8,3*3B,1730920450803
NMEA,$GNVTG,,T,,M,0.0,N,0.0,K,A*3D,1730920450803
NMEA,$GNRMC,191410.00,A,3725.611783,N,12210.606726,W,0.0,,061124,15.0,E,A,V*5F,1730920450803
NMEA,$GNGGA,191410.00,3725.611783,N,12210.606726,W,1,12,0.7,20.6,M,-27.9,M,,*77,1730920450804
NMEA,$GPGSV,3,1,10,02,07,201,12,03,77,177,29,04,59,324,27,06,16,307,18,1*6F,1730920451781
NMEA,$GPGSV,3,2,10,07,18,232,19,09,33,296,33,16,39,118,23,26,38,071,16,1*6F,1730920451782
NMEA,$GPGSV,3,3,10,28,04,049,21,31,33,046,18,1*6C,1730920451782
NMEA,$GLGSV,3,1,10,74,10,194,19,70,61,049,18,86,15,272,17,73,52,174,28,1*79,1730920451782
NMEA,$GLGSV,3,2,10,80,56,053,21,79,07,026,20,69,11,106,18,87,11,319,12,1*7F,1730920451782
NMEA,$GLGSV,3,3,10,71,39,327,18,85,00,000,,1*77,1730920451782
NMEA,$GAGSV,3,1,09,07,32,075,13,12,22,303,19,19,34,292,26,21,16,170,25,7*72,1730920451783
NMEA,$GAGSV,3,2,09,26,11,195,24,27,41,115,19,29,67,354,29,30,25,054,17,7*79,1730920451784
NMEA,$GAGSV,3,3,09,10,09,323,,7*40,1730920451784
NMEA,$PQGSV,1,1,0,0*43,1730920451784
NMEA,$PQGSV,1,1,0,0*43,1730920451784
NMEA,$GNGSA,A,3,02,03,04,07,09,16,26,,,,,,1.0,0.7,0.8,1*37,1730920451790
NMEA,$GNGSA,A,3,69,71,73,80,,,,,,,,,1.0,0.7,0.8,2*39,1730920451790
NMEA,$GNGSA,A,3,07,19,21,26,27,29,,,,,,,1.0,0.7,0.8,3*3B,1730920451791
NMEA,$GNVTG,,T,,M,0.0,N,0.0,K,A*3D,1730920451791
NMEA,$GNRMC,191411.00,A,3725.611901,N,12210.606891,W,0.0,,061124,15.0,E,A,V*59,1730920451791
NMEA,$GNGGA,191411.00,3725.611901,N,12210.606891,W,1,12,0.7,20.5,M,-27.9,M,,*72,1730920451792
NMEA,$GPGSV,3,1,10,02,07,201,12,03,77,177,30,04,59,324,28,06,16,307,12,1*62,1730920452787
NMEA,$GPGSV,3,2,10,07,18,232,16,09,33,296,33,16,39,118,23,26,38,071,16,1*60,1730920452788
NMEA,$GPGSV,3,3,10,28,04,049,21,31,33,046,,1*65,1730920452788
NMEA,$GLGSV,3,1,10,74,10,194,18,70,61,049,18,86,15,272,17,73,52,174,28,1*78,1730920452789
NMEA,$GLGSV,3,2,10,80,56,053,21,79,07,026,20,69,11,106,20,87,11,319,12,1*74,1730920452789
NMEA,$GLGSV,3,3,10,71,39,327,14,85,00,000,,1*7B,1730920452789
NMEA,$GAGSV,3,1,09,07,32,075,13,12,22,303,19,19,34,292,26,21,16,170,27,7*70,1730920452790
NMEA,$GAGSV,3,2,09,26,11,195,23,27,41,115,19,29,67,354,29,30,25,054,17,7*7E,1730920452790
NMEA,$GAGSV,3,3,09,10,09,323,,7*40,1730920452791
NMEA,$PQGSV,1,1,0,0*43,1730920452792
NMEA,$PQGSV,1,1,0,0*43,1730920452792
NMEA,$GNGSA,A,3,02,03,04,06,07,09,16,26,,,,,1.0,0.7,0.7,1*3E,1730920452797
NMEA,$GNGSA,A,3,69,71,73,80,,,,,,,,,1.0,0.7,0.7,2*36,1730920452797
NMEA,$GNGSA,A,3,07,19,21,26,27,29,,,,,,,1.0,0.7,0.7,3*34,1730920452798
NMEA,$GNVTG,,T,,M,0.0,N,0.0,K,A*3D,1730920452798
NMEA,$GNRMC,191412.00,A,3725.611995,N,12210.607031,W,0.0,,061124,15.0,E,A,V*54,1730920452798
NMEA,$GNGGA,191412.00,3725.611995,N,12210.607031,W,1,12,0.7,20.4,M,-27.9,M,,*7E,1730920452799
NMEA,$GPGSV,3,1,10,02,07,201,12,03,77,177,31,04,59,324,29,06,16,307,12,1*62,1730920453782
NMEA,$GPGSV,3,2,10,07,18,232,16,09,33,296,32,16,39,118,25,26,38,071,16,1*67,1730920453783
NMEA,$GPGSV,3,3,10,28,04,049,21,31,33,046,,1*65,1730920453783
NMEA,$GLGSV,3,1,10,74,10,194,18,70,61,049,18,86,15,272,17,73,52,174,25,1*75,1730920453783
NMEA,$GLGSV,3,2,10,80,56,053,23,79,07,026,20,69,11,106,23,87,11,319,12,1*75,1730920453783
NMEA,$GLGSV,3,3,10,71,39,327,16,85,00,000,,1*79,1730920453783
NMEA,$GAGSV,3,1,09,07,32,075,13,12,22,303,19,19,34,292,24,21,16,170,26,7*73,1730920453783
NMEA,$GAGSV,3,2,09,26,11,195,23,27,41,115,20,29,67,354,30,30,25,054,17,7*7C,1730920453783
NMEA,$GAGSV,3,3,09,10,09,323,,7*40,1730920453784
NMEA,$PQGSV,1,1,0,0*43,1730920453784
NMEA,$PQGSV,1,1,0,0*43,1730920453784
NMEA,$GNGSA,A,3,02,03,04,06,07,09,16,26,,,,,1.0,0.7,0.7,1*3E,1730920453787
NMEA,$GNGSA,A,3,69,71,73,80,,,,,,,,,1.0,0.7,0.7,2*36,1730920453788
NMEA,$GNGSA,A,3,07,19,21,26,27,29,,,,,,,1.0,0.7,0.7,3*34,1730920453788
NMEA,$GNVTG,158.9,T,158.9,M,3.5,N,6.4,K,A*39,1730920453788
NMEA,$GNRMC,191413.00,A,3725.612028,N,12210.607487,W,3.5,158.9,061124,15.0,E,A,V*7D,1730920453788
NMEA,$GNGGA,191413.00,3725.612028,N,12210.607487,W,1,12,0.7,20.0,M,-27.9,M,,*7E,1730920453788
NMEA,$GPGSV,3,1,10,02,07,201,12,03,77,177,29,04,59,324,29,06,16,307,12,1*6B,1730920454784
NMEA,$GPGSV,3,2,10,07,18,232,16,09,33,296,31,16,39,118,23,26,38,071,18,1*6C,1730920454785
NMEA,$GPGSV,3,3,10,28,04,049,21,31,33,046,17,1*63,1730920454785
NMEA,$GLGSV,3,1,10,74,10,194,18,70,61,049,18,86,15,272,17,73,52,174,32,1*73,1730920454786
NMEA,$GLGSV,3,2,10,80,56,053,23,79,07,026,20,69,11,106,26,87,11,319,12,1*70,1730920454786
NMEA,$GLGSV,3,3,10,71,39,327,17,85,00,000,,1*78,1730920454786
NMEA,$GAGSV,3,1,09,07,32,075,13,12,22,303,19,19,34,292,23,21,16,170,28,7*7A,1730920454787
NMEA,$GAGSV,3,2,09,26,11,195,25,27,41,115,19,29,67,354,29,30,25,054,17,7*78,1730920454787
NMEA,$GAGSV,3,3,09,10,09,323,,7*40,1730920454787
NMEA,$PQGSV,1,1,0,0*43,1730920454787
NMEA,$PQGSV,1,1,0,0*43,1730920454788
NMEA,$GNGSA,A,3,02,03,04,06,07,09,16,26,31,,,,1.0,0.6,0.7,1*3D,1730920454795
NMEA,$GNGSA,A,3,69,71,73,80,,,,,,,,,1.0,0.6,0.7,2*37,1730920454796
NMEA,$GNGSA,A,3,07,19,21,26,27,29,,,,,,,1.0,0.6,0.7,3*35,1730920454796
NMEA,$GNVTG,285.3,T,285.3,M,2.3,N,4.2,K,A*3A,1730920454797
NMEA,$GNRMC,191414.00,A,3725.612136,N,12210.608202,W,2.3,285.3,061124,15.0,E,A,V*7E,1730920454797
NMEA,$GNGGA,191414.00,3725.612136,N,12210.608202,W,1,12,0.6,19.4,M,-27.9,M,,*7C,1730920454797
NMEA,$GPGSV,3,1,10,02,07,201,12,03,77,177,29,04,59,324,29,06,16,307,12,1*6B,1730920455784
NMEA,$GPGSV,3,2,10,07,18,232,16,09,33,296,30,16,39,118,23,26,38,071,18,1*6D,1730920455784
NMEA,$GPGSV,3,3,10,28,04,049,21,31,33,046,19,1*6D,1730920455785
NMEA,$GLGSV,3,1,10,74,10,194,19,70,61,049,18,86,15,272,17,73,52,174,34,1*74,1730920455785
NMEA,$GLGSV,3,2,10,80,56,053,21,79,07,026,20,69,11,106,26,87,11,319,12,1*72,1730920455785
NMEA,$GLGSV,3,3,10,71,39,327,18,85,00,000,,1*77,1730920455785
NMEA,$GAGSV,3,1,09,07,32,075,13,12,22,303,19,19,34,292,22,21,16,170,27,7*74,1730920455786
NMEA,$GAGSV,3,2,09,26,11,195,26,27,41,115,19,29,67,354,28,30,25,054,17,7*7A,1730920455786
NMEA,$GAGSV,3,3,09,10,09,323,,7*40,1730920455786
NMEA,$PQGSV,1,1,0,0*43,1730920455787
NMEA,$PQGSV,1,1,0,0*43,1730920455787
NMEA,$GNGSA,A,3,02,03,04,06,07,09,16,26,31,,,,1.0,0.6,0.7,1*3D,1730920455791
NMEA,$GNGSA,A,3,69,71,73,80,,,,,,,,,1.0,0.6,0.7,2*37,1730920455791
NMEA,$GNGSA,A,3,07,19,21,26,27,29,,,,,,,1.0,0.6,0.7,3*35,1730920455792
NMEA,$GNVTG,302.0,T,302.0,M,1.7,N,3.2,K,A*3A,1730920455792
NMEA,$GNRMC,191415.00,A,3725.612714,N,12210.609207,W,1.7,302.0,061124,15.0,E,A,V*77,1730920455792
NMEA,$GNGGA,191415.00,3725.612714,N,12210.609207,W,1,12,0.6,19.0,M,-27.9,M,,*7B,1730920455793
NMEA,$GPGSV,3,1,10,03,77,177,28,04,59,324,29,06,16,307,12,07,18,232,16,1*65,1730920456785
NMEA,$GPGSV,3,2,10,09,33,296,32,16,39,118,22,26,38,071,17,28,04,049,21,1*6B,1730920456785
NMEA,$GPGSV,3,3,10,31,33,046,19,02,07,201,,1*6B,1730920456785
NMEA,$GLGSV,3,1,10,74,10,194,18,70,61,049,18,86,15,272,17,73,52,174,32,1*73,1730920456786
NMEA,$GLGSV,3,2,10,80,56,053,22,79,07,026,10,69,11,106,25,87,11,319,12,1*71,1730920456786
NMEA,$GLGSV,3,3,10,71,39,327,18,85,00,000,,1*77,1730920456786
NMEA,$GAGSV,3,1,09,07,32,075,13,12,22,303,19,19,34,292,22,21,16,170,29,7*7A,1730920456787
NMEA,$GAGSV,3,2,09,26,11,195,26,27,41,115,22,29,67,354,29,30,25,054,17,7*73,1730920456787
NMEA,$GAGSV,3,3,09,10,09,323,,7*40,1730920456787
NMEA,$PQGSV,1,1,0,0*43,1730920456787
NMEA,$PQGSV,1,1,0,0*43,1730920456788
NMEA,$GNGSA,A,3,02,03,04,06,07,09,16,26,31,,,,0.9,0.6,0.7,1*35,1730920456794
NMEA,$GNGSA,A,3,69,71,73,80,,,,,,,,,0.9,0.6,0.7,2*3F,1730920456795
NMEA,$GNGSA,A,3,07,12,19,21,26,27,29,,,,,,0.9,0.6,0.7,3*3E,1730920456795
NMEA,$GNVTG,286.0,T,286.0,M,3.9,N,7.2,K,A*32,1730920456795
NMEA,$GNRMC,191416.00,A,3725.613261,N,12210.610643,W,3.9,286.0,061124,15.0,E,A,V*7F,1730920456796
NMEA,$GNGGA,191416.00,3725.613261,N,12210.610643,W,1,12,0.6,20.1,M,-27.9,M,,*79,1730920456796
NMEA,$GPGSV,3,1,10,03,77,177,30,04,59,324,30,06,16,307,12,07,18,232,16,1*64,1730920457782
NMEA,$GPGSV,3,2,10,09,33,296,29,16,39,118,24,26,38,071,19,28,04,049,21,1*69,1730920457782
NMEA,$GPGSV,3,3,10,31,33,046,19,02,07,201,,1*6B,1730920457782
NMEA,$GLGSV,3,1,10,74,10,194,20,70,61,049,18,86,15,272,17,73,52,174,34,1*7E,1730920457783
NMEA,$GLGSV,3,2,10,80,56,053,21,79,07,026,10,69,11,106,25,87,11,319,12,1*72,1730920457783
NMEA,$GLGSV,3,3,10,71,39,327,17,85,00,000,,1*78,1730920457783
NMEA,$GAGSV,3,1,09,07,32,075,16,12,22,303,19,19,34,292,16,21,16,170,29,7*78,1730920457783
NMEA,$GAGSV,3,2,09,26,11,195,25,27,41,115,21,29,67,354,30,30,25,054,17,7*7B,1730920457784
NMEA,$GAGSV,3,3,09,10,09,323,,7*40,1730920457784
NMEA,$PQGSV,1,1,0,0*43,1730920457784
NMEA,$PQGSV,1,1,0,0*43,1730920457785
NMEA,$GNGSA,A,3,03,04,06,07,09,16,26,31,,,,,1.0,0.6,0.7,1*3F,1730920457792
NMEA,$GNGSA,A,3,69,71,73,80,,,,,,,,,1.0,0.6,0.7,2*37,1730920457792
NMEA,$GNGSA,A,3,07,12,19,21,26,27,29,,,,,,1.0,0.6,0.7,3*36,1730920457792
NMEA,$GNVTG,287.0,T,287.0,M,1.7,N,3.1,K,A*39,1730920457792
NMEA,$GNRMC,191417.00,A,3725.613752,N,12210.612039,W,1.7,287.0,061124,15.0,E,A,V*7F,1730920457793
NMEA,$GNGGA,191417.00,3725.613752,N,12210.612039,W,1,12,0.6,19.7,M,-27.9,M,,*78,1730920457793
NMEA,$GPGSV,3,1,10,03,77,177,32,04,59,324,31,06,16,307,12,07,18,232,16,1*67,1730920458778
NMEA,$GPGSV,3,2,10,09,33,296,27,16,39,118,23,26,38,071,16,28,04,049,21,1*6F,1730920458780
NMEA,$GPGSV,3,3,10,31,33,046,19,02,07,201,,1*6B,1730920458781
NMEA,$GLGSV,3,1,10,74,10,194,20,70,61,049,18,86,15,272,17,73,52,174,32,1*78,1730920458782
NMEA,$GLGSV,3,2,10,80,56,053,24,79,07,026,10,69,11,106,23,87,11,319,12,1*71,1730920458782
NMEA,$GLGSV,3,3,10,71,39,327,20,85,00,000,,1*7C,1730920458789
NMEA,$GAGSV,3,1,09,07,32,075,16,12,22,303,19,19,34,292,16,21,16,170,29,7*78,1730920458790
NMEA,$GAGSV,3,2,09,26,11,195,27,27,41,115,20,29,67,354,30,30,25,054,17,7*78,1730920458790
NMEA,$GAGSV,3,3,09,10,09,323,,7*40,1730920458790
NMEA,$PQGSV,1,1,0,0*43,1730920458790
NMEA,$PQGSV,1,1,0,0*43,1730920458790
NMEA,$GNGSA,A,3,03,04,09,16,26,31,,,,,,,1.0,0.7,0.8,1*30,1730920458794
NMEA,$GNGSA,A,3,69,71,73,80,,,,,,,,,1.0,0.7,0.8,2*39,1730920458794
NMEA,$GNGSA,A,3,07,12,19,21,26,27,29,,,,,,1.0,0.7,0.8,3*38,1730920458794
NMEA,$GNVTG,286.6,T,286.6,M,2.9,N,5.3,K,A*30,1730920458795
NMEA,$GNRMC,191418.00,A,3725.614115,N,12210.613354,W,2.9,286.6,061124,15.0,E,A,V*71,1730920458795
NMEA,$GNGGA,191418.00,3725.614115,N,12210.613354,W,1,12,0.7,20.1,M,-27.9,M,,*71,1730920458795
NMEA,$GPGSV,3,1,10,03,77,177,32,04,59,324,32,06,16,307,12,07,18,232,16,1*64,1730920459782
NMEA,$GPGSV,3,2,10,09,33,296,22,16,39,118,26,26,38,071,21,28,04,049,21,1*6B,1730920459782
NMEA,$GPGSV,3,3,10,02,07,201,,31,33,046,,1*63,1730920459782
NMEA,$GLGSV,3,1,10,74,10,194,16,70,61,049,18,86,15,272,17,73,52,174,32,1*7D,1730920459784
NMEA,$GLGSV,3,2,10,80,56,053,23,79,07,026,10,69,11,106,21,87,11,319,12,1*74,1730920459786
NMEA,$GLGSV,3,3,10,71,39,327,17,85,00,000,,1*78,1730920459788
NMEA,$GAGSV,3,1,09,07,32,075,17,12,22,303,18,19,34,292,16,21,16,170,29,7*78,1730920459789
NMEA,$GAGSV,3,2,09,26,11,195,26,27,41,115,24,29,67,354,31,30,25,054,17,7*7C,1730920459789
NMEA,$GAGSV,3,3,09,10,09,323,,7*40,1730920459790
NMEA,$PQGSV,1,1,0,0*43,1730920459791
NMEA,$PQGSV,1,1,0,0*43,1730920459791
NMEA,$GNGSA,A,3,03,04,09,16,26,31,,,,,,,1.0,0.7,0.8,1*30,1730920459796
NMEA,$GNGSA,A,3,69,71,73,80,,,,,,,,,1.0,0.7,0.8,2*39,1730920459796
NMEA,$GNGSA,A,3,07,12,19,21,26,27,29,,,,,,1.0,0.7,0.8,3*38,1730920459797
NMEA,$GNVTG,286.5,T,286.5,M,2.9,N,5.3,K,A*30,1730920459797
NMEA,$GNRMC,191419.00,A,3725.614452,N,12210.614865,W,2.9,286.5,061124,15.0,E,A,V*7B,1730920459797
NMEA,$GNGGA,191419.00,3725.614452,N,12210.614865,W,1,12,0.7,21.0,M,-27.9,M,,*78,1730920459799
NMEA,$GPGSV,3,1,10,03,77,177,33,04,59,324,31,06,16,307,12,07,18,232,16,1*66,1730920460787
NMEA,$GPGSV,3,2,10,09,33,296,23,16,39,118,25,26,38,071,19,28,04,049,21,1*62,1730920460787
NMEA,$GPGSV,3,3,10,31,33,046,22,02,07,201,,1*63,1730920460788
NMEA,$GLGSV,3,1,10,74,10,194,20,70,61,049,18,86,15,272,17,73,52,174,32,1*78,1730920460788
NMEA,$GLGSV,3,2,10,80,56,053,23,79,07,026,10,69,11,106,23,87,11,319,12,1*76,1730920460788
NMEA,$GLGSV,3,3,10,71,39,327,23,85,00,000,,1*7F,1730920460788
NMEA,$GAGSV,3,1,09,07,32,075,17,12,22,303,19,19,34,292,16,21,16,170,28,7*78,1730920460789
NMEA,$GAGSV,3,2,09,26,11,195,26,27,41,115,25,29,67,354,31,30,25,054,14,7*7E,1730920460789
NMEA,$GAGSV,3,3,09,10,09,323,,7*40,1730920460790
NMEA,$PQGSV,1,1,0,0*43,1730920460790
NMEA,$PQGSV,1,1,0,0*43,1730920460791
NMEA,$GNGSA,A,3,03,04,09,16,26,31,,,,,,,1.0,0.7,0.8,1*30,1730920460797
NMEA,$GNGSA,A,3,69,71,73,80,,,,,,,,,1.0,0.7,0.8,2*39,1730920460797
NMEA,$GNGSA,A,3,07,12,19,21,26,27,29,30,,,,,1.0,0.7,0.8,3*3B,1730920460797
NMEA,$GNVTG,286.4,T,286.4,M,2.6,N,4.8,K,A*35,1730920460798
NMEA,$GNRMC,191420.00,A,3725.614694,N,12210.616349,W,2.6,286.4,061124,15.0,E,A,V*70,1730920460798
NMEA,$GNGGA,191420.00,3725.614694,N,12210.616349,W,1,12,0.7,22.3,M,-27.9,M,,*7D,1730920460798
NMEA,$GPGSV,3,1,10,03,77,177,32,04,59,324,30,06,16,307,12,07,18,232,16,1*66,1730920461784
NMEA,$GPGSV,3,2,10,09,33,296,25,16,39,118,25,26,38,071,19,28,04,049,21,1*64,1730920461784
NMEA,$GPGSV,3,3,10,31,33,046,23,02,07,201,,1*62,1730920461784
NMEA,$GLGSV,3,1,10,74,10,194,21,70,61,049,13,86,15,272,17,73,52,174,30,1*70,1730920461785
NMEA,$GLGSV,3,2,10,80,56,053,23,79,07,026,10,69,11,106,25,87,11,319,12,1*70,1730920461785
NMEA,$GLGSV,3,3,10,71,39,327,27,85,00,000,,1*7B,1730920461785
NMEA,$GAGSV,3,1,09,07,32,075,16,12,22,303,19,19,34,292,16,21,16,170,29,7*78,1730920461785
NMEA,$GAGSV,3,2,09,26,11,195,24,27,41,115,21,29,67,354,31,30,25,054,14,7*78,1730920461786
NMEA,$GAGSV,3,3,09,10,09,323,,7*40,1730920461786
NMEA,$PQGSV,1,1,0,0*43,1730920461787
NMEA,$PQGSV,1,1,0,0*43,1730920461787
NMEA,$GNGSA,A,3,03,04,09,16,26,31,,,,,,,1.0,0.7,0.8,1*30,1730920461793
NMEA,$GNGSA,A,3,69,71,73,80,,,,,,,,,1.0,0.7,0.8,2*39,1730920461793
NMEA,$GNGSA,A,3,07,12,19,21,26,27,29,30,,,,,1.0,0.7,0.8,3*3B,1730920461793
NMEA,$GNVTG,286.4,T,286.4,M,1.7,N,3.1,K,A*39,1730920461794
NMEA,$GNRMC,191421.00,A,3725.614943,N,12210.617455,W,1.7,286.4,061124,15.0,E,A,V*7D,1730920461794
NMEA,$GNGGA,191421.00,3725.614943,N,12210.617455,W,1,12,0.7,22.4,M,-27.9,M,,*75,1730920461794
NMEA,$GPGSV,3,1,10,03,77,177,33,04,59,324,31,06,16,307,12,07,18,232,16,1*66,1730920462783
NMEA,$GPGSV,3,2,10,09,33,296,19,16,39,118,25,26,38,071,20,28,04,049,21,1*61,1730920462783
NMEA,$GPGSV,3,3,10,31,33,046,19,02,07,201,,1*6B,1730920462784
NMEA,$GLGSV,3,1,10,74,10,194,22,70,61,049,13,86,15,272,17,73,52,174,31,1*72,1730920462784
NMEA,$GLGSV,3,2,10,80,56,053,23,79,07,026,14,69,11,106,24,87,11,319,12,1*75,1730920462784
NMEA,$GLGSV,3,3,10,71,39,327,28,85,00,000,,1*74,1730920462784
NMEA,$GAGSV,3,1,09,07,32,075,19,12,22,303,19,19,34,292,16,21,16,170,29,7*77,1730920462784
NMEA,$GAGSV,3,2,09,26,11,195,20,27,41,115,22,29,67,354,30,30,25,054,14,7*7E,1730920462784
NMEA,$GAGSV,3,3,09,10,09,323,,7*40,1730920462786
NMEA,$PQGSV,1,1,0,0*43,1730920462787
NMEA,$PQGSV,1,1,0,0*43,1730920462787
NMEA,$GNGSA,A,3,03,04,09,16,26,31,,,,,,,1.0,0.7,0.8,1*30,1730920462792
NMEA,$GNGSA,A,3,69,71,73,80,,,,,,,,,1.0,0.7,0.8,2*39,1730920462793
NMEA,$GNGSA,A,3,07,12,19,21,26,27,29,30,,,,,1.0,0.7,0.8,3*3B,1730920462793
NMEA,$GNVTG,286.3,T,286.3,M,2.6,N,4.8,K,A*35,1730920462793
NMEA,$GNRMC,191422.00,A,3725.615177,N,12210.618580,W,2.6,286.3,061124,15.0,E,A,V*73,1730920462794
NMEA,$GNGGA,191422.00,3725.615177,N,12210.618580,W,1,12,0.7,21.7,M,-27.9,M,,*7E,1730920462794
NMEA,$GPGSV,3,1,10,03,77,177,33,04,59,324,30,06,16,307,12,07,18,232,16,1*67,1730920463781
NMEA,$GPGSV,3,2,10,09,33,296,19,16,39,118,28,26,38,071,19,28,04,049,21,1*66,1730920463786
NMEA,$GPGSV,3,3,10,31,33,046,21,02,07,201,,1*60,1730920463786
NMEA,$GLGSV,3,1,10,74,10,194,22,70,61,049,13,86,15,272,17,73,52,174,30,1*73,1730920463786
NMEA,$GLGSV,3,2,10,80,56,053,29,79,07,026,14,69,11,106,21,87,11,319,12,1*7A,1730920463786
NMEA,$GLGSV,3,3,10,71,39,327,28,85,00,000,,1*74,1730920463787
NMEA,$GAGSV,3,1,09,07,32,075,19,12,22,303,19,19,34,292,16,21,16,170,30,7*7F,1730920463787
NMEA,$GAGSV,3,2,09,26,11,195,24,27,41,115,24,29,67,354,31,30,25,054,15,7*7C,1730920463788
NMEA,$GAGSV,3,3,09,10,09,323,,7*40,1730920463788
NMEA,$PQGSV,1,1,0,0*43,1730920463788
NMEA,$PQGSV,1,1,0,0*43,1730920463789
NMEA,$GNGSA,A,3,03,04,09,16,26,31,,,,,,,1.0,0.7,0.8,1*30,1730920463793
NMEA,$GNGSA,A,3,69,71,73,80,,,,,,,,,1.0,0.7,0.8,2*39,1730920463793
NMEA,$GNGSA,A,3,07,12,21,26,27,29,30,,,,,,1.0,0.7,0.8,3*33,1730920463794
NMEA,$GNVTG,286.3,T,286.3,M,1.5,N,2.8,K,A*33,1730920463794
NMEA,$GNRMC,191423.00,A,3725.615352,N,12210.619650,W,1.5,286.3,061124,15.0,E,A,V*78,1730920463794
NMEA,$GNGGA,191423.00,3725.615352,N,12210.619650,W,1,12,0.7,22.8,M,-27.9,M,,*79,1730920463794
NMEA,$GPGSV,3,1,10,03,77,177,30,04,59,324,31,06,16,307,12,07,18,232,11,1*62,1730920464783
NMEA,$GPGSV,3,2,10,09,33,296,19,16,39,118,26,26,38,071,22,28,04,049,21,1*60,1730920464783
NMEA,$GPGSV,3,3,10,31,33,046,22,02,07,201,,1*63,1730920464783
NMEA,$GLGSV,3,1,10,74,10,194,20,70,61,049,13,86,15,272,17,73,52,174,32,1*73,1730920464784
NMEA,$GLGSV,3,2,10,80,56,053,30,79,07,026,14,69,11,106,20,87,11,319,12,1*73,1730920464784
NMEA,$GLGSV,3,3,10,71,39,327,34,85,00,000,,1*79,1730920464784
NMEA,$GAGSV,3,1,09,07,32,075,19,12,22,303,19,19,34,292,16,21,16,170,31,7*7E,1730920464785
NMEA,$GAGSV,3,2,09,26,11,195,27,27,41,115,26,29,67,354,31,30,25,054,15,7*7D,1730920464785
NMEA,$GAGSV,3,3,09,10,09,323,,7*40,1730920464785
NMEA,$PQGSV,1,1,0,0*43,1730920464785
NMEA,$PQGSV,1,1,0,0*43,1730920464786
NMEA,$GNGSA,A,3,03,04,07,09,16,26,31,,,,,,1.0,0.6,0.7,1*39,1730920464793
NMEA,$GNGSA,A,3,69,71,73,80,,,,,,,,,1.0,0.6,0.7,2*37,1730920464793
NMEA,$GNGSA,A,3,07,12,21,26,27,29,30,,,,,,1.0,0.6,0.7,3*3D,1730920464793
NMEA,$GNVTG,,T,,M,0.0,N,0.0,K,A*3D,1730920464793
NMEA,$GNRMC,191424.00,A,3725.615393,N,12210.620344,W,0.0,,061124,15.0,E,A,V*5D,1730920464794
NMEA,$GNGGA,191424.00,3725.615393,N,12210.620344,W,1,12,0.6,23.3,M,-27.9,M,,*72,1730920464794
NMEA,$GPGSV,3,1,10,03,77,177,24,04,59,324,30,06,16,307,12,07,18,232,11,1*66,1730920465782
NMEA,$GPGSV,3,2,10,09,33,296,19,16,39,118,28,26,38,071,17,28,04,049,21,1*68,1730920465783
NMEA,$GPGSV,3,3,10,31,33,046,21,02,07,201,,1*60,1730920465783
NMEA,$GLGSV,3,1,10,74,10,194,19,70,61,049,13,86,15,272,17,73,52,174,32,1*79,1730920465783
NMEA,$GLGSV,3,2,10,80,56,053,27,79,07,026,14,69,11,106,25,87,11,319,12,1*70,1730920465783
NMEA,$GLGSV,3,3,10,71,39,327,28,85,00,000,,1*74,1730920465784
NMEA,$GAGSV,3,1,09,07,32,075,19,12,22,303,19,19,34,292,16,21,16,170,28,7*76,1730920465784
NMEA,$GAGSV,3,2,09,26,11,195,19,27,41,115,31,29,67,354,27,30,25,054,15,7*71,1730920465784
NMEA,$GAGSV,3,3,09,10,09,323,,7*40,1730920465784
NMEA,$PQGSV,1,1,0,0*43,1730920465784
NMEA,$PQGSV,1,1,0,0*43,1730920465785
NMEA,$GNGSA,A,3,03,04,07,09,16,26,31,,,,,,1.0,0.6,0.7,1*39,1730920465787
NMEA,$GNGSA,A,3,69,71,73,80,,,,,,,,,1.0,0.6,0.7,2*37,1730920465788
NMEA,$GNGSA,A,3,07,12,21,26,27,29,30,,,,,,1.0,0.6,0.7,3*3D,1730920465788
NMEA,$GNVTG,,T,,M,0.0,N,0.0,K,A*3D,1730920465788
NMEA,$GNRMC,191425.00,A,3725.615361,N,12210.620715,W,0.0,,061124,15.0,E,A,V*51,1730920465788
NMEA,$GNGGA,191425.00,3725.615361,N,12210.620715,W,1,12,0.6,23.1,M,-27.9,M,,*7C,1730920465788
NMEA,$GPGSV,3,1,10,03,77,177,36,04,59,324,21,06,16,307,12,07,18,232,11,1*65,1730920466785
NMEA,$GPGSV,3,2,10,09,33,296,19,16,39,118,39,26,38,071,30,28,04,049,21,1*6D,1730920466786
NMEA,$GPGSV,3,3,10,31,33,046,25,02,07,201,,1*64,1730920466787
NMEA,$GLGSV,3,1,09,74,10,194,18,70,61,049,13,86,15,272,17,73,52,174,31,1*73,1730920466788
NMEA,$GLGSV,3,2,09,80,56,053,32,79,07,026,14,69,11,106,32,71,39,327,21,1*74,1730920466789
