     4.01           OBSERVATION DATA    M                   RINEX VERSION / TYPE
GnssLogger          Google 10           20241106 191355 UTC PGM / RUN BY / DATE
Google GnssLogger                                           MARKER NAME
Unknown                                                     MARKER NUMBER
Unknown             Unknown                                 OBSERVER / AGENCY
Unknown             GnssLogger          v3.1.0.3            REC # / TYPE / VERS
Unknown             Unknown                                 ANT # / TYPE
        0.0000        0.0000        0.0000                  ANTENNA: DELTA H/E/N
G    3 C1C D1C S1C                                          SYS / # / OBS TYPES
R    3 C1C D1C S1C                                          SYS / # / OBS TYPES
E    3 C1C D1C S1C                                          SYS / # / OBS TYPES
  2024    11    06    19    13   55.0000000     GLONASS     TIME OF FIRST OBS
 9 R05  1 R06 -4 R07  5 R09 -2 R10 -7 R15  0 R16 -1 R22 -3  GLONASS SLOT / FRQ #
   R23  3                                                   GLONASS SLOT / FRQ #
Google Pixel 3 XL (Android 10) HW Year: 2018 HW Model:      COMMENT
crosshatch;MPSS.AT.4.0.c2.17-00096-SDM845_GEN_PACK-1;       COMMENT
                                                            END OF HEADER
> 2024 11 06 19 13 55.4358023  0 20                      
R06  19773835.23523      -347.35023        22.30023
R22  23069209.99422     -2606.80022        14.20022
R09  20116241.69125      2532.77325        31.90025
R16  19966990.01626     -1767.64626        38.50026
R15  23824465.14224     -4389.35024        24.80024
R05  23430983.94323     -3131.95023        21.60023
R07  20995677.17123      2242.35023        21.20023
G03  20088226.68626     -1189.79726        36.10026
G04  20725464.63523       745.90023        23.10023
G07  24028522.77622      2457.70022        17.20022
G16  21740910.85625      1730.55625        30.50025
G26  21844879.18124     -1074.36424        26.70024
G28  25425279.82123     -3651.30023        20.10023
G31  22370172.52824     -3367.87724        28.50024
E07  25696883.99324     -1855.25024        24.60024
E21  27207633.52323      2769.95023        20.90023
E26  27618659.17625     -3309.98125        35.30025
E27  25086348.85826      1358.21626        37.80026
E29  23608341.76125       -98.84725        33.40025
E30  26521076.71624     -1187.90024        23.80024
> 2024 11 06 19 13 56.4358021  0 20                      
R06  19773796.83423      -329.40023        22.00023
R22  23069638.67022     -2606.80022        14.20022
R09  20115705.03525      2554.22225        31.80025
R16  19967252.90726     -1746.21526        38.20026
R15  23825257.76524     -4368.61024        25.00024
R05  23431526.84023     -3112.35023        21.00023
R07  20995240.34623      2263.90023        22.10023
G03  20088395.44126     -1168.55526        35.60026
G04  20725252.05523       765.30023        23.10023
G07  24027995.41322      2457.70022        17.20022
G16  21740522.59824      1751.82124        29.30024
G26  21845023.35324     -1052.20024        27.50024
G28  25425956.12523     -3628.80023        18.40023
G31  22370770.88624     -3346.43124        27.40024
E07  25697155.87723     -1834.80023        22.80023
E21  27207067.78723      2792.80023        23.10023
E26  27619230.55325     -3289.71925        34.40025
E27  25086027.75326      1377.83526        36.70026
E29  23608294.66625       -78.98025        32.40025
E30  26521227.48424     -1167.60024        23.50024
> 2024 11 06 19 13 57.4358019  0 20                      
R06  19773814.00123      -323.30023        22.30023
R22  23070066.85222     -2606.80022        14.20022
R09  20115172.98325      2559.98225        32.20025
R16  19967521.60026     -1740.53826        37.30026
R15  23825995.03424     -4359.05024        24.90024
R05  23432054.55423     -3108.70023        21.20023
R07  20994761.95624      2267.72624        27.30024
G03  20088562.50526     -1163.00926        37.60026
G04  20725056.66924       771.67624        27.50024
G07  24027462.16122      2480.70022        17.20022
G16  21740119.15625      1757.89425        32.50025
G26  21845167.03324     -1047.30224        28.60024
G28  25426605.55523     -3626.25023        18.90023
G31  22371328.87924     -3342.10024        23.70024
E07  25697438.96124     -1828.00024        23.70024
E21  27206474.27724      2796.81424        26.10024
E26  27619793.94225     -3282.40425        33.40025
E27  25085705.25526      1385.56926        35.70026
E29  23608249.77625       -72.07925        31.10025
E30  26521405.04123     -1162.65023        23.00023
> 2024 11 06 19 13 58.4358018  0 21                      
R10  23513803.80324      4272.10024        27.80024
R06  19773914.47523      -314.05023        21.60023
R22  23070524.97922     -2606.80022        14.20022
R09  20114662.78025      2569.53025        35.00025
R16  19967820.83626     -1730.52726        36.50026
R15  23826754.45223     -4353.30023        22.50023
R05  23432574.43723     -3099.25023        20.00023
R07  20994271.83924      2276.82224        27.00024
G03  20088755.31526     -1153.83426        38.10026
G04  20724888.22925       780.16025        30.40025
G07  24026960.35222      2480.70022        17.20022
G16  21739768.74225      1767.45425        30.90025
G26  21845334.06124     -1037.63624        29.10024
G28  25427256.44823     -3615.75023        18.50023
G31  22371945.59524     -3334.00024        23.50024
E07  25697744.19324     -1814.41024        25.30024
E21  27205921.80326      2806.74226        36.50026
E26  27620388.17425     -3272.88925        34.70025
E27  25085406.10625      1396.71925        35.30025
E29  23608225.53624       -62.61624        27.00024
E30  26521602.64723     -1154.55023        19.10023
> 2024 11 06 19 13 59.4358016  0 21                      
R10  23512940.20524      4270.41824        25.50024
R06  19773877.10423      -308.65023        22.60023
R22  23070953.48622     -2606.80022        14.20022
R09  20114119.36025      2570.20325        34.50025
R16  19968088.95425     -1729.41425        35.40025
R15  23827481.85223     -4346.85023        21.40023
R05  23433081.79024     -3096.65024        24.10024
R07  20993799.47024      2278.95024        25.40024
G03  20088914.30926     -1153.36326        38.10026
G04  20724678.77825       780.87225        30.50025
G07  24026458.30423      2492.90023        17.90023
G16  21739379.41525      1768.95125        32.80025
G26  21845472.66925     -1036.34825        29.70025
G28  25427884.61623     -3615.75023        18.50023
G31  22372497.61724     -3332.15024        25.80024
E07  25698039.29224     -1813.90124        28.30024
E21  27205327.41825      2808.95725        34.50025
E26  27620951.58825     -3271.35725        33.90025
E27  25085082.73326      1398.55626        36.70026
E29  23608188.76625       -62.07825        29.80025
E30  26521774.23223     -1151.40023        19.40023
> 2024 11 06 19 14 00.4358015  0 22                      
R10  23512068.08424      4273.15024        24.90024
R06  19773929.54424      -309.00024        24.50024
R22  23071411.84422     -2606.80022        14.20022
R09  20113603.99225      2573.07425        34.70025
R16  19968380.32826     -1727.60126        35.50026
R15  23828313.45223     -4349.20023        20.50023
R05  23433666.66124     -3094.07524        26.10024
R07  20993388.43024      2278.95324        26.30024
G03  20089101.65526     -1150.89126        37.10026
G04  20724503.97524       784.65024        25.70024
G07  24025954.02923      2492.90023        17.90023
G09  22341260.41823      2091.30023        17.70023
G16  21739001.65326      1769.83326        36.60026
G26  21845642.62725     -1033.40325        30.60025
G28  25428542.63723     -3615.75023        18.50023
G31  22373099.57624     -3325.21824        26.50024
E07  25698362.74425     -1811.17325        29.70025
E21  27204759.88725      2812.21525        32.30025
E26  27621535.85925     -3269.22625        30.30025
E27  25084788.61325      1401.61825        34.30025
E29  23608167.75625       -58.29025        30.40025
E30  26521975.36923     -1153.55023        21.40023
> 2024 11 06 19 14 01.4358013  0 23                      
R10  23511257.80724      4264.75024        24.10024
R06  19773916.71423      -314.25023        23.10023
R22  23071840.30922     -2606.80022        14.20022
R09  20113072.82125      2565.53625        33.30025
R16  19968633.71425     -1734.73125        34.50025
R15  23829016.82723     -4348.35023        19.90023
R05  23434200.95223     -3103.70023        22.40023
R07  20992886.33924      2275.05924        25.50024
G02  24973700.27923     -3108.50023        19.10023
G03  20089263.60425     -1157.96425        35.40025
G04  20724285.78725       777.37125        29.60025
G07  24025399.47423      2494.70023        17.90023
G09  22340793.10323      2086.65023        20.70023
G16  21738610.78526      1765.90026        35.60026
G26  21845780.29324     -1040.33424        28.00024
G28  25429163.26822     -3609.75022        15.80022
G31  22373639.56424     -3331.95024        24.10024
E07  25698641.31324     -1815.76924        26.80024
E21  27204166.65925      2805.88225        30.00025
E26  27622102.52825     -3273.15625        32.20025
E27  25084458.00325      1396.52025        34.00025
E29  23608116.85324       -63.34524        28.60024
E30  26522111.83623     -1156.30023        18.10023
> 2024 11 06 19 14 02.4358012  0 23                      
R10  23510382.11523      4275.05023        22.50023
R06  19773966.18124      -309.00024        24.40024
R22  23072298.69322     -2606.80022        14.20022
R09  20112557.48026      2571.93026        39.00026
R16  19968928.71225     -1728.13825        35.00025
R15  23829830.16523     -4345.30023        21.10023
R05  23434710.60124     -3095.43824        28.60024
R07  20992388.38524      2280.00024        23.90024
G02  24974294.76923     -3103.80023        19.50023
G03  20089450.67626     -1152.00026        37.00026
G04  20724111.60924       781.44724        28.50024
G07  24024900.02123      2497.95023        21.20023
G09  22340348.21223      2090.25023        21.20023
G16  21738238.74426      1772.68426        36.50026
G26  21845938.28524     -1033.54624        28.70024
G28  25429843.49923     -3609.80023        17.90023
G31  22374265.23224     -3326.26424        26.80024
E07  25698957.59524     -1811.16624        27.40024
E21  27203600.95225      2811.75825        33.90025
E26  27622698.21726     -3269.02826        35.90026
E27  25084166.00725      1400.41125        33.50025
E29  23608100.06625       -59.51625        30.10025
E30  26522299.50824     -1153.06124        26.30024
> 2024 11 06 19 14 03.4358010  0 24                      
R10  23509544.88024      4269.75024        24.00024
R06  19773927.89424      -310.45024        24.30024
R22  23072726.88322     -2606.80022        14.20022
R09  20112015.84126      2568.99626        39.60026
R16  19969206.40626     -1731.19626        35.80026
R15  23830572.23823     -4350.05023        22.00023
R05  23435257.20925     -3092.33225        31.10025
R07  20991981.95323      2276.55023        19.30023
G02  24974825.18823     -3103.80023        19.50023
G03  20089605.15526     -1154.77826        37.80026
G04  20723897.34424       782.17024        27.50024
G07  24024328.40323      2498.95023        18.80023
G09  22339932.48623      2092.15023        22.30023
G16  21737840.70626      1770.31226        37.60026
G26  21846069.98024     -1035.51624        28.90024
G28  25430472.84923     -3605.65023        17.80023
G31  22374840.02024     -3332.14624        26.70024
E07  25699240.08624     -1811.47824        27.50024
E12  26921017.86722       208.85022        14.40022
E21  27203005.65125      2810.88925        33.00025
E26  27623258.61525     -3269.67125        32.70025
E27  25083838.12025      1399.71925        30.50025
E29  23608047.98825       -60.65725        29.80025
E30  26522481.86723     -1154.30023        23.30023
> 2024 11 06 19 14 04.4358009  0 24                      
R10  23508715.85424      4267.50024        24.90024
R06  19773963.47024      -315.22724        25.00024
R22  23073232.83322     -2604.85022        14.30022
R09  20111494.70226      2565.19126        36.60026
R16  19969484.21325     -1735.51325        35.10025
R15  23831380.97823     -4348.75023        21.60023
R05  23435790.14025     -3093.70525        32.10025
R07  20991511.17923      2276.45023        19.10023
G02  24975377.60523     -3106.30023        21.30023
G03  20089799.02126     -1158.18926        37.10026
G04  20723731.15924       776.73324        28.10024
G07  24023854.03223      2496.50023        22.50023
G09  22339485.39623      2080.75023        21.40023
G16  21737470.36226      1766.57826        38.20026
G26  21846244.95925     -1040.44525        29.60025
G28  25431129.29523     -3605.65023        17.80023
G31  22375449.09924     -3328.03124        25.20024
E07  25699552.96924     -1814.20324        27.60024
E12  26920948.21522       208.85022        14.40022
E21  27202440.44225      2807.96625        32.00025
E26  27623855.10325     -3272.61425        33.80025
E27  25083541.82525      1396.45125        33.60025
E29  23608036.19625       -63.85425        30.50025
E30  26522677.53223     -1157.45023        19.30023
> 2024 11 06 19 14 05.4358007  0 24                      
R10  23507906.49923      4244.80023        21.80023
R06  19773974.94624      -336.60024        23.70024
R22  23073660.72122     -2604.85022        14.30022
R09  20110954.56025      2544.24325        35.30025
R16  19969754.41125     -1756.61625        34.50025
R15  23832134.74123     -4348.75023        21.60023
R05  23436318.75825     -3113.69825        32.60025
R07  20991033.99423      2252.95023        20.90023
G02  24975908.62223     -3127.25023        23.40023
G03  20089961.59326     -1178.95226        38.30026
G04  20723526.48525       755.45025        29.50025
G07  24023306.39523      2472.65023        20.20023
G09  22339017.50424      2066.87024        26.80024
G16  21737079.21726      1746.01926        37.50026
G26  21846387.74525     -1060.40925        29.70025
G28  25431755.04723     -3605.65023        17.80023
G31  22376026.58324     -3344.19424        26.00024
E07  25699842.35424     -1835.14424        28.60024
E12  26920848.46922       208.85022        14.40022
E21  27201849.33625      2786.97725        31.30025
E26  27624419.69625     -3293.47425        34.90025
E27  25083218.13425      1375.25225        33.50025
E29  23607984.71625       -84.33125        30.40025
E30  26522846.99924     -1180.60024        23.90024
> 2024 11 06 19 14 06.4358006  0 24                      
R10  23507055.26924      4243.85024        24.60024
R06  19774017.39723      -336.60023        23.40023
R22  23074118.98422     -2604.85022        14.30022
R09  20110457.08525      2541.90025        34.80025
R16  19970052.28525     -1760.35025        34.80025
R15  23832918.87823     -4348.75023        21.60023
R05  23436867.25925     -3118.00025        30.30025
R07  20990520.62923      2249.60023        21.50023
G02  24976467.31623     -3129.25023        21.10023
G03  20090159.03726     -1182.82026        37.60026
G04  20723349.78824       753.45024        28.00024
G07  24022816.11523      2469.30023        21.10023
G09  22338595.87624      2064.35024        24.30024
G16  21736720.84626      1742.53526        37.70026
G26  21846559.70625     -1064.55025        30.10025
G28  25432450.14622     -3631.60022        15.70022
G31  22376624.84924     -3353.75024        26.60024
E07  25700165.11024     -1837.80824        27.50024
E12  26920794.08722       191.30022        15.10022
E21  27201290.40326      2784.97626        36.20026
E26  27625011.66725     -3296.87525        30.60025
E27  25082926.31625      1372.45925        31.30025
E29  23607974.40425       -86.97525        30.30025
E30  26523048.04022     -1185.00022        17.40022
> 2024 11 06 19 14 07.4358004  0 24                      
R10  23506181.11624      4255.28524        26.10024
R06  19774002.14924      -327.20024        24.20024
R22  23074546.83022     -2604.85022        14.30022
R09  20109914.80226      2551.34826        35.50026
R16  19970322.14025     -1750.19125        34.80025
R15  23833659.10722     -4370.80022        14.10022
R05  23437400.33224     -3113.67624        26.00024
R07  20990056.59224      2262.00024        24.50024
G02  24977005.18524     -3120.60024        24.40024
G03  20090326.06326     -1171.95426        36.90026
G04  20723148.36924       764.41724        26.90024
G07  24022283.72523      2480.00023        21.60023
G09  22338151.92524      2076.30424        26.00024
G16  21736325.16126      1753.19226        37.50026
G26  21846702.14924     -1054.45124        29.00024
G28  25433031.48523     -3621.80023        19.10023
G31  22377198.69424     -3340.64224        28.60024
E07  25700459.24824     -1827.68924        27.40024
E12  26920697.89522       191.30022        15.10022
E21  27200701.05326      2795.24326        36.00026
E26  27625576.51825     -3285.40825        29.90025
E27  25082610.97625      1382.04425        30.00025
E29  23607927.67825       -77.49325        30.10025
E30  26523213.56822     -1185.00022        17.40022
> 2024 11 06 19 14 08.4358001  0 24                      
R10  23505337.68224      4261.05224        25.70024
R06  19774017.62124      -323.05024        24.70024
R22  23074974.81622     -2604.85022        14.30022
R09  20109378.65625      2556.83225        33.60025
R16  19970592.13625     -1744.81525        34.20025
R15  23834406.07323     -4361.10023        22.20023
R05  23437909.26223     -3113.90023        23.10023
R07  20989583.40324      2268.15024        24.40024
G02  24977534.20224     -3112.50024        24.40024
G03  20090480.63926     -1166.31126        36.50026
G04  20722935.99924       769.50924        27.70024
G07  24021752.07623      2490.05023        22.80023
G09  22337679.93524      2079.06024        25.20024
G16  21735930.21826      1758.65626        37.70026
G26  21846838.43725     -1048.76525        30.70025
G28  25433660.63223     -3621.80023        19.10023
G31  22377793.96524     -3338.51024        27.70024
E07  25700739.43724     -1820.89424        28.80024
E12  26920601.24422       191.30022        15.10022
E21  27200106.14726      2802.01126        35.90026
E26  27626144.80725     -3278.28425        30.50025
E27  25082278.98825      1388.42025        30.80025
E29  23607883.19125       -70.62925        30.30025
E30  26523368.14322     -1171.80022        16.70022
> 2024 11 06 19 14 09.4358001  0 24                      
R10  23504502.71624      4264.29424        25.50024
R06  19774020.27524      -320.80024        23.50024
R22  23075432.85522     -2604.85022        14.30022
R09  20108877.05925      2556.77925        32.80025
R16  19970883.49025     -1744.63725        34.90025
R15  23835209.47323     -4355.55023        20.20023
R05  23438479.42324     -3103.34724        25.50024
R07  20989167.24723      2268.30023        21.20023
G02  24978091.47223     -3111.05023        19.70023
G03  20090672.16226     -1166.80226        36.20026
G04  20722737.79224       769.10024        25.90024
G07  24021245.08324      2490.10024        24.90024
G09  22337266.77724      2080.90024        24.80024
G16  21735562.62826      1758.54026        37.60026
G26  21847011.97325     -1048.97125        30.30025
G28  25434318.63222     -3611.75022        16.20022
G31  22378389.60824     -3340.70524        25.30024
E07  25701056.87324     -1820.30624        26.30024
E12  26920534.94622       191.30022        15.10022
E21  27199542.19425      2802.89925        33.50025
E26  27626737.15325     -3277.14925        31.30025
E27  25081981.85024      1389.87024        27.80024
E29  23607868.75725       -69.28225        30.70025
E30  26523559.66723     -1169.40023        19.80023
> 2024 11 06 19 14 10.4357998  0 25                      
R10  23503636.17024      4249.67024        25.80024
R06  19774039.61623      -335.05023        23.20023
R22  23075965.14022     -2625.70022        13.60022
R09  20108335.48726      2543.91526        35.90026
R16  19971163.65025     -1757.27425        34.70025
R15  23835964.80323     -4355.55023        20.20023
R05  23438988.02525     -3105.70525        29.60025
R07  20988659.55224      2253.95224        25.30024
G02  24978623.45723     -3111.05023        19.70023
G03  20090840.49926     -1178.97326        36.50026
G04  20722560.16924       759.95024        26.80024
G07  24020718.80124      2476.78424        26.50024
G09  22336811.54624      2070.20024        25.80024
G16  21735171.25226      1746.70526        38.00026
G26  21847156.62724     -1059.90024        29.30024
G28  25434983.42623     -3633.50023        19.20023
G31  22378959.66724     -3347.85024        24.20024
E07  25701344.22824     -1831.07824        27.00024
E12  26920438.86622       193.35022        15.20022
E19  25237741.27422      1344.15022        13.40022
E21  27198949.05825      2791.73325        33.80025
E26  27627300.01725     -3289.03325        30.50025
E27  25081666.92225      1378.03425        30.50025
E29  23607817.04725       -80.23525        31.30025
E30  26523711.51523     -1179.25023        18.90023
> 2024 11 06 19 14 11.4357998  0 24                      
R10  23502789.06923      4245.75023        22.90023
R06  19774048.42323      -336.40023        23.30023
R22  23076459.31123     -2628.75023        19.90023
R09  20107831.35026      2543.47226        38.60026
R16  19971450.06525     -1758.45125        33.60025
R15  23836749.77323     -4355.55023        20.20023
R05  23439545.75225     -3113.25025        30.60025
R07  20988205.47924      2257.05024        24.90024
G03  20091031.88025     -1178.98325        35.20025
G04  20722378.60824       759.75024        26.80024
G07  24020203.27123      2469.25023        22.00023
G09  22336387.15324      2070.95024        27.50024
G16  21734807.41826      1746.29026        36.70026
G26  21847328.52125     -1060.20025        31.20025
G28  25435640.08522     -3631.10022        17.30022
G31  22379548.27324     -3345.45024        25.60024
E07  25701660.32324     -1836.80024        24.00024
E12  26920368.82822       189.15022        17.40022
E19  25237437.99723      1343.70023        21.00023
E21  27198389.15925      2790.20225        32.00025
E26  27627902.11325     -3289.96425        33.30025
E27  25081371.14025      1376.43725        32.40025
E29  23607807.56725       -82.09025        29.80025
E30  26523905.89423     -1179.25023        18.90023
> 2024 11 06 19 14 12.4357996  0 25                      
R10  23501952.50923      4267.20023        23.20023
R06  19774107.64224      -318.10024        24.10024
R22  23076891.77223     -2628.75023        19.90023
R09  20107295.48126      2560.86026        39.80026
R16  19971720.93725     -1741.03425        32.70025
R15  23837465.83822     -4364.20022        15.10022
R05  23440082.84025     -3094.33625        29.50025
R07  20987708.88324      2272.88524        25.60024
G02  24979727.26724     -3108.01624        29.00024
G03  20091193.32825     -1162.70525        33.70025
G04  20722183.30324       775.35024        25.60024
G07  24019673.09824      2495.10024        27.20024
G09  22335920.83624      2086.37824        29.40024
G16  21734418.14726      1763.20126        36.80026
G26  21847464.78724     -1044.33924        28.90024
G28  25436265.91223     -3619.85023        18.30023
G31  22380144.42024     -3331.13824        27.40024
E07  25701947.68424     -1812.65024        24.90024
E12  26920273.05522       189.15022        17.40022
E19  25237135.66723      1356.40023        22.80023
E21  27197793.33124      2808.49724        27.70024
E26  27628463.78526     -3271.43726        36.40026
E27  25081047.22425      1394.31225        33.00025
E29  23607760.95925       -63.94425        30.50025
E30  26524070.34023     -1179.25023        18.90023
> 2024 11 06 19 14 13.4357994  0 25                      
R10  23501081.67024      4272.65024        23.50024
R06  19774096.30823      -311.20023        23.00023
R22  23077324.43123     -2628.75023        19.90023
R09  20106745.12026      2565.06426        40.70026
R16  19971989.90925     -1736.95525        33.60025
R15  23838264.84323     -4347.45023        19.90023
R05  23440603.93724     -3092.90024        26.80024
R07  20987250.25924      2279.90024        24.40024
G02  24980253.46024     -3103.71324        27.80024
G03  20091353.77525     -1158.26725        34.60025
G04  20721959.71624       779.86024        27.10024
G07  24019141.32424      2496.32324        29.30024
G09  22335466.70824      2090.54424        28.90024
G16  21734019.18226      1767.42526        37.80026
G26  21847599.15225     -1040.08625        30.10025
G28  25436894.93423     -3619.85023        18.30023
G31  22380730.27324     -3328.11624        26.80024
E07  25702234.64324     -1810.08724        25.70024
E12  26920177.17922       189.15022        17.40022
E19  25236817.34523      1361.60023        22.40023
E21  27197201.59925      2812.92025        29.50025
E26  27629027.75225     -3266.45625        34.70025
E27  25080720.50825      1397.69125        31.40025
E29  23607710.35225       -59.90125        30.40025
E30  26524234.98423     -1179.25023        18.90023
> 2024 11 06 19 14 14.4357993  0 25                      
R10  23500240.36224      4270.72524        25.70024
R06  19774093.22023      -318.70023        22.00023
R22  23077786.92123     -2628.75023        19.90023
R09  20106243.47726      2560.16326        41.40026
R16  19972291.11125     -1741.63525        32.40025
R15  23839070.29523     -4353.25023        18.80023
R05  23441168.95724     -3095.91824        28.30024
R07  20986762.40724      2271.50024        24.20024
G02  24980814.88224     -3111.85024        23.90024
G03  20091547.35126     -1163.11426        36.80026
G04  20721777.35224       777.88924        26.90024
G07  24018622.89424      2489.51324        28.60024
G09  22335046.60924      2091.48424        27.20024
G16  21733651.84625      1761.76325        33.90025
G26  21847780.43724     -1038.24424        26.90024
G28  25437553.48823     -3619.85023        18.30023
G31  22381308.78324     -3331.80024        24.20024
E07  25702546.63723     -1816.10023        23.20023
E12  26920111.13522       189.15022        17.40022
E19  25236531.85323      1362.70023        21.30023
E21  27196634.60225      2809.06525        30.60025
E26  27629621.85125     -3270.98825        34.80025
E27  25080424.52425      1393.76125        33.90025
E29  23607696.17225       -63.61825        29.60025
E30  26524429.76022     -1157.70022        14.80022
> 2024 11 06 19 14 15.4357991  0 26                      
R10  23499377.32624      4265.50024        23.90024
R06  19774095.38524      -325.00024        23.70024
R22  23078182.71322     -2609.05022        13.20022
R09  20105704.21726      2554.82826        40.50026
R16  19972548.99825     -1747.98625        32.20025
R15  23839824.93923     -4353.25023        18.80023
R05  23441659.18324     -3100.35024        24.10024
R23  23496060.72222      -109.70022        15.00022
R07  20986306.18924      2269.50024        24.70024
G02  24981347.67924     -3112.10024        23.50024
G03  20091713.50225     -1168.54825        35.30025
G04  20721605.63724       774.15024        24.50024
G07  24018089.92925      2483.27625        32.00025
G09  22334591.59024      2083.15024        28.40024
G16  21733259.18426      1757.50526        37.70026
G26  21847914.51025     -1048.10025        30.20025
G28  25438182.51923     -3619.85023        18.30023
G31  22381901.53823     -3334.40023        20.90023
E07  25702844.99724     -1818.95024        24.20024
E12  26920015.26722       189.15022        17.40022
E19  25236221.63423      1352.60023        21.30023
E21  27196041.97825      2804.64925        32.80025
E26  27630187.62524     -3275.16124        26.00024
E27  25080098.41525      1388.63525        31.10025
E29  23607649.77025       -68.83625        29.50025
E30  26524590.21422     -1157.70022        14.80022
> 2024 11 06 19 14 16.4357990  0 27                      
R10  23498554.79224      4288.45024        23.50024
R06  19774132.65623      -304.25023        22.30023
R22  23078641.19222     -2609.05022        13.20022
R09  20105193.16726      2572.13226        39.60026
R16  19972845.29025     -1730.94525        31.90025
R15  23840556.52922     -4356.35022        15.60022
R05  23442215.99524     -3081.75024        25.10024
R23  23496053.32422      -110.65022        14.10022
R07  20985866.19024      2285.15024        24.60024
G02  24981898.49523     -3095.20023        20.00023
G03  20091899.47125     -1151.63325        33.90025
G04  20721409.67024       789.95024        24.20024
G06  24087695.23922       620.65022        15.70022
G07  24017581.87725      2500.31925        34.40025
G09  22334167.78024      2102.30024        27.50024
G16  21732892.03525      1774.22325        34.40025
G26  21848077.09425     -1033.35625        29.80025
G28  25438881.73222     -3609.80022        15.30022
G31  22382534.49723     -3319.10023        19.00023
E07  25703154.18023     -1803.35023        21.10023
E12  26919949.11022       189.15022        17.40022
E19  25235914.44323      1372.40023        20.80023
E21  27195478.76525      2822.60925        33.70025
E26  27630771.71824     -3257.61424        29.30024
E27  25079805.31525      1406.84025        33.00025
E29  23607630.68025       -50.10125        29.50025
E30  26524794.47022     -1163.40022        17.40022
> 2024 11 06 19 14 17.4357989  0 27                      
R10  23497736.32524      4285.03924        25.70024
R06  19774159.60323      -304.25023        22.30023
R22  23079099.84122     -2609.05022        13.20022
R09  20104672.09425      2574.84325        35.40025
R16  19973136.35524     -1728.24224        27.80024
R15  23841383.92323     -4341.25023        18.90023
R05  23442769.37824     -3081.87424        26.70024
R23  23496055.38922      -112.75022        13.10022
R07  20985381.99224      2291.35024        24.40024
G02  24982479.45924     -3088.63424        26.80024
G03  20092088.60625     -1147.81225        34.10025
G04  20721224.96424       793.51324        26.00024
G06  24087547.10722       620.65022        15.70022
G07  24017075.79425      2506.30025        32.80025
G09  22333727.05224      2104.27724        27.40024
G16  21732525.35526      1775.65326        38.90026
G26  21848278.52123     -1030.20023        21.40023
G28  25439538.54322     -3609.80022        15.30022
G31  22383106.16723     -3313.45023        20.60023
E07  25703491.11323     -1800.10023        19.80023
E12  26919883.12222       189.15022        17.40022
E19  25235624.81023      1377.55023        23.30023
E21  27194910.32526      2827.13426        35.50026
E26  27631359.27724     -3251.69724        28.80024
E27  25079505.48926      1409.62326        37.00026
E29  23607614.75823       -47.65023        23.40023
E30  26524986.00322     -1163.40022        17.40022
> 2024 11 06 19 14 18.4357987  0 25                      
R10  23496857.82623      4288.65023        22.70023
R06  19774101.63622      -297.60022        16.80022
R22  23079537.73022     -2606.70022        17.10022
R09  20104132.96026      2575.74226        35.80026
R16  19973411.15724     -1728.21224        28.40024
R15  23842136.89423     -4332.75023        21.50023
R05  23443278.61825     -3081.94525        30.80025
R23  23495994.42322      -112.55022        14.10022
R07  20984895.32124      2294.75024        24.70024
G02  24983029.77024     -3087.07224        25.20024
G03  20092243.49125     -1146.55425        29.80025
G06  24087369.22322       620.65022        15.70022
G07  24016537.85926      2507.46226        37.80026
G09  22333267.36324      2110.06024        28.60024
G16  21732128.62225      1775.04025        34.90025
G26  21848391.73524     -1031.45524        25.60024
G28  25440135.62223     -3591.60023        18.70023
E07  25703753.92324     -1799.35024        24.00024
E12  26919767.89422       218.80022        13.20022
E19  25235308.72123      1378.30023        20.70023
E21  27194313.63024      2825.97924        27.90024
E26  27631923.67925     -3251.39825        29.60025
E27  25079174.11125      1406.73325        32.40025
E29  23607557.69024       -42.30024        24.70024
E30  26525147.48422     -1163.40022        17.40022
> 2024 11 06 19 14 19.4357985  0 27                      
R10  23496023.38323      4291.75023        18.90023
R06  19774127.29822      -297.60022        16.80022
R22  23079956.42023     -2591.10023        20.60023
R09  20103621.09425      2588.33425        33.30025
R16  19973700.03724     -1716.20024        27.50024
R15  23842850.58023     -4318.05023        22.60023
R05  23443825.31925     -3070.24225        30.80025
R23  23496005.39522      -112.60022        13.10022
R07  20984488.08323      2308.20023        20.50023
G02  24983571.07524     -3076.35024        23.90024
G03  20092432.84025     -1134.24425        30.60025
G04  20720859.28923       810.10023        21.20023
G06  24087221.00522       620.65022        15.70022
G07  24016027.19226      2520.14926        38.70026
G09  22332804.06323      2122.60023        21.00023
G16  21731755.86025      1786.90625        33.00025
G26  21848558.00024     -1031.75024        25.60024
G28  25440774.66023     -3581.40023        20.90023
G31  22384351.87723     -3300.00023        18.60023
E07  25704037.70623     -1789.30023        22.80023
E12  26919677.53723       235.75023        18.80023
E19  25235016.30323      1378.30023        20.70023
E21  27193750.80024      2837.08224        28.60024
E26  27632508.75424     -3239.75924        29.30024
E27  25078878.09524      1417.74824        27.50024
E29  23607524.29323       -32.75023        23.00023
E30  26525338.93122     -1163.40022        17.40022
> 2024 11 06 19 14 20.4357985  0 25                      
R10  23495159.88323      4304.40023        19.00023
R06  19774225.83223      -281.75023        17.90023
R22  23080418.90223     -2582.70023        21.40023
R09  20103114.04825      2593.31425        31.20025
R16  19974000.33125     -1711.06825        29.80025
R15  23843652.12724     -4314.80024        24.20024
R05  23444364.24825     -3063.53025        34.30025
R23  23495998.10322      -113.45022        13.10022
R07  20983922.27723      2313.80023        20.80023
G02  24984120.19724     -3069.26324        26.30024
G03  20092614.71624     -1129.61224        28.20024
G07  24015517.74726      2525.98226        40.90026
G09  22332373.76324      2128.15024        24.40024
G16  21731391.81425      1792.06825        33.40025
G26  21848724.28723     -1018.05023        22.90023
G28  25441408.62323     -3572.50023        21.20023
G31  22384977.14723     -3295.00023        19.30023
E07  25704375.77523     -1781.25023        21.30023
E12  26919605.78923       243.80023        19.10023
E19  25234736.20023      1401.25023        18.20023
E21  27193191.58924      2845.40024        24.00024
E26  27633096.84924     -3231.81524        26.40024
E27  25078580.00424      1425.15724        26.60024
E29  23607505.30823       -25.65023        22.90023
E30  26525530.40122     -1163.40022        17.40022
> 2024 11 06 19 14 21.4357982  0 26                      
R10  23494308.15823      4304.05023        21.10023
R06  19774144.57423      -290.35023        17.80023
R22  23080900.95422     -2587.50022        17.30022
R09  20102563.01425      2591.98725        32.10025
R16  19974254.24125     -1712.88025        30.20025
R15  23844419.28123     -4314.60023        19.70023
R05  23444885.27326     -3065.04326        36.90026
R23  23495957.01622      -106.95022        13.30022
R07  20983485.16424      2314.60024        23.60024
G02  24984647.51724     -3069.20724        27.90024
G03  20092766.69624     -1131.73624        28.90024
G06  24086838.65823       649.15023        18.10023
G07  24014981.40326      2525.10626        39.40026
G09  22331935.15225      2127.95025        32.00025
G16  21730996.67325      1790.96025        33.00025
G26  21848856.78024     -1016.75724        28.40024
G28  25442047.16623     -3578.90023        20.70023
G31  22385508.36423     -3299.55023        17.80023
E07  25704663.56123     -1782.60023        22.90023
E12  26919499.64723       243.80023        19.10023
E19  25234390.22424      1397.22224        26.20024
E21  27192574.30224      2844.45024        28.30024
E26  27633652.05024     -3233.78624        28.20024
E27  25078258.91225      1421.87825        29.90025
E29  23607448.93223       -29.35023        22.60023
E30  26525691.97522     -1163.40022        17.40022
> 2024 11 06 19 14 22.4357982  0 27                      
R10  23493470.63623      4304.05023        21.10023
R06  19774168.95523      -290.35023        17.80023
R22  23081355.53722     -2587.50022        17.30022
R09  20102041.77324      2593.89524        26.40024
R16  19974496.87122     -1708.60022        15.70022
R15  23845196.74123     -4314.60023        19.70023
R05  23445422.89924     -3062.65924        27.90024
R23  23495944.82321      -105.75021        12.20021
R07  20983033.77523      2313.40023        20.50023
G02  24985211.52523     -3068.60023        18.40023
G03  20092954.76424     -1128.07624        25.90024
G04  20720239.60424       815.25024        25.60024
G06  24086684.96223       649.15023        18.10023
G07  24014464.06025      2527.82225        31.80025
G09  22331496.65424      2129.05024        24.90024
G16  21730625.92824      1793.10024        24.40024
G26  21849027.46022     -1015.15022        16.60022
G28  25442698.11423     -3578.90023        20.70023
G31  22386105.94823     -3299.55023        17.80023
E07  25704972.74523     -1782.60023        22.90023
E12  26919422.99823       243.80023        19.10023
E19  25234094.12724      1397.22224        26.20024
E21  27192008.99123      2844.20023        19.30023
E26  27634231.94623     -3229.75023        20.00023
E27  25077960.71623      1426.05023        19.50023
E29  23607431.04323       -24.90023        20.50023
E30  26525883.04022     -1163.40022        17.40022
> 2024 11 06 19 14 23.4357981  0 27                      
R10  23492633.14223      4304.05023        21.10023
R06  19774193.36423      -290.35023        17.80023
R22  23081810.44922     -2587.50022        17.30022
R09  20101531.35324      2592.95024        23.90024
R16  19974740.72822     -1708.40022        15.00022
R15  23845974.22923     -4314.60023        19.70023
R05  23445957.25524     -3060.86724        28.10024
R23  23495899.98021      -105.05021        12.20021
R07  20982603.99923      2316.40023        18.00023
G02  24985765.66823     -3068.60023        18.40023
G03  20093143.16024     -1129.43824        29.30024
G04  20720054.75825       817.30025        30.00025
G06  24086531.59523       649.15023        18.10023
G07  24013966.23124      2527.10024        24.60024
G09  22331049.78923      2132.05023        23.10023
G16  21730251.01423      1796.30023        19.50023
G26  21849175.08422     -1018.65022        15.50022
G28  25443349.38923     -3578.90023        20.70023
G31  22386704.16123     -3299.55023        17.80023
E07  25705281.95723     -1782.60023        22.90023
E12  26919346.67723       243.80023        19.10023
E19  25233782.17022      1402.00022        17.30022
E21  27191419.12623      2844.10023        22.50023
E26  27634825.66222     -3228.45022        16.30022
E27  25077659.55123      1426.05023        19.50023
E29  23607398.19224       -24.80024        24.00024
E30  26526074.43422     -1163.40022        17.40022
> 2024 11 06 19 14 24.4357979  0 27                      
R10  23491779.76222      4303.85022        15.60022
R06  19774187.79723      -290.35023        17.80023
R22  23082234.78422     -2587.50022        17.30022
R09  20100989.15724      2590.55024        24.90024
R16  19975099.40923     -1718.05023        20.80023
R15  23846721.44123     -4314.60023        19.70023
R05  23446486.81723     -3058.55023        21.90023
R23  23495868.63121      -105.70021        12.20021
R07  20982111.26923      2316.40023        18.00023
G02  24986289.53423     -3068.60023        18.40023
G03  20093302.17924     -1130.60224        26.90024
G04  20719839.93624       817.69524        27.20024
G06  24086347.95123       649.15023        18.10023
G07  24013419.23824      2529.71024        25.80024
G09  22330596.93224      2133.61124        29.40024
G16  21729858.41423      1788.30023        19.90023
G26  21849308.92122     -1018.65022        15.50022
G28  25443970.08823     -3578.90023        20.70023
G31  22387271.79723     -3299.55023        17.80023
E07  25705561.19323     -1782.60023        22.90023
E12  26919240.38023       243.80023        19.10023
E19  25233458.52323      1405.55023        22.60023
E21  27190824.16723      2846.45023        23.40023
E26  27635380.70623     -3230.80023        21.00023
E27  25077328.10923      1426.05023        19.50023
E29  23607346.15724       -25.43224        26.50024
E30  26526235.85122     -1163.40022        17.40022
> 2024 11 06 19 14 25.4357978  0 27                      
R10  23490942.51422      4303.85022        15.60022
R06  19774212.15223      -290.35023        17.80023
R22  23082689.64122     -2587.50022        17.30022
R09  20100466.09225      2593.42125        29.80025
R16  19975374.99023     -1707.45023        20.20023
R15  23847498.87523     -4314.60023        19.70023
R05  23447019.02124     -3053.95024        26.80024
R23  23495858.51021      -105.70021        12.20021
R07  20981560.02322      2315.35022        13.20022
G02  24986843.62323     -3068.60023        18.40023
G03  20093478.52924     -1128.23124        28.80024
G04  20719657.73424       824.00024        24.60024
G06  24086194.52923       649.15023        18.10023
G07  24012909.06424      2532.18124        25.30024
G09  22330160.20625      2137.45825        30.30025
G16  21729471.75424      1789.45024        23.60024
G26  21849466.68422     -1018.70022        15.00022
G28  25444621.31023     -3578.90023        20.70023
G31  22387869.65523     -3299.55023        17.80023
E07  25705870.35123     -1782.60023        22.90023
E12  26919164.00523       243.80023        19.10023
E19  25233174.99124      1409.05024        23.80024
E21  27190256.73224      2845.15024        24.10024
E26  27635967.77223     -3227.25023        22.10023
E27  25077006.50422      1425.05022        15.10022
E29  23607321.94624       -21.28224        28.10024
E30  26526427.19122     -1163.40022        17.40022
> 2024 11 06 19 14 26.4357976  0 27                      
R10  23490089.68122      4310.90022        17.20022
R06  19774236.81323      -290.35023        17.80023
R22  23083144.50322     -2587.50022        17.30022
R09  20099930.73924      2597.30024        23.70024
R16  19975670.96322     -1702.10022        17.20022
R15  23848276.61323     -4314.60023        19.70023
R05  23447574.01423     -3049.90023        23.20023
R23  23495848.39421      -105.70021        12.20021
R07  20981201.24823      2326.15023        18.50023
G02  24987397.41723     -3068.60023        18.40023
G03  20093668.67424     -1120.57224        28.00024
G04  20719475.53724       828.34824        26.70024
G06  24086041.11323       649.15023        18.10023
G07  24012377.00923      2541.40023        22.00023
G09  22329721.08825      2145.20925        30.50025
G16  21729121.37423      1796.50023        21.60023
G26  21849630.74722     -1018.70022        15.00022
G28  25445272.53623     -3578.90023        20.70023
G31  22388467.81823     -3299.55023        17.80023
E07  25706179.81423     -1782.60023        22.90023
E12  26919087.63523       243.80023        19.10023
E19  25232875.57623      1415.40023        22.70023
E21  27189681.20724      2850.60024        24.70024
E26  27636543.15123     -3219.60023        22.00023
E27  25076725.07623      1429.60023        18.10023
E29  23607295.64124       -15.02524        28.10024
E30  26526618.83622     -1163.40022        17.40022
> 2024 11 06 19 14 27.4357976  0 27                      
R10  23489283.92323      4310.10023        18.60023
R06  19774261.18023      -290.35023        17.80023
R22  23083599.37322     -2587.50022        17.30022
R09  20099439.16424      2595.85024        25.60024
R16  19975924.07223     -1706.50023        18.60023
R15  23849054.06023     -4314.60023        19.70023
R05  23448115.22424     -3052.20024        24.40024
R23  23495838.28621      -105.70021        12.20021
R07  20980697.08223      2328.00023        17.50023
G02  24987951.51723     -3068.60023        18.40023
G03  20093843.53824     -1125.76824        28.30024
G04  20719283.45524       823.96624        27.40024
G06  24085887.70323       649.15023        18.10023
G07  24011916.31223      2533.45023        19.00023
G09  22329286.17325      2140.78825        32.70025
G16  21728740.42223      1796.55023        23.20023
G26  21849793.91922     -1009.05022        16.20022
G28  25445923.77023     -3578.90023        20.70023
G31  22389065.68823     -3299.55023        17.80023
E07  25706490.18322     -1776.15022        12.70022
E12  26919011.27223       243.80023        19.10023
E19  25232568.37323      1409.70023        22.70023
E21  27189118.58124      2848.59724        25.90024
E26  27637126.33223     -3222.10023        22.30023
E27  25076445.15423      1430.45023        21.10023
E29  23607270.24324       -18.35024        29.20024
E30  26526810.18822     -1163.40022        17.40022
> 2024 11 06 19 14 28.4357974  0 27                      
R10  23488424.71523      4319.90023        18.90023
R06  19774255.78123      -290.35023        17.80023
R22  23084024.17622     -2587.50022        17.30022
R09  20098891.74024      2601.34824        28.20024
R16  19976193.58223     -1703.20023        21.10023
R15  23849801.43923     -4314.60023        19.70023
R05  23448629.36523     -3046.65023        18.30023
R23  23495797.81121      -105.70021        12.20021
R07  20980202.12223      2328.00023        17.50023
G02  24988459.06321     -3065.55021        12.40021
G03  20093999.42724     -1120.85124        28.90024
G04  20719056.50924       830.44224        27.30024
G06  24085704.22723       649.15023        18.10023
G07  24011373.98523      2533.45023        19.00023
G09  22328813.39825      2146.95925        32.80025
G16  21728339.59723      1796.55023        23.30023
G26  21849925.82522     -1009.05022        16.20022
G28  25446544.63723     -3578.90023        20.70023
G31  22389633.79223     -3299.55023        17.80023
E07  25706768.08822     -1776.15022        12.70022
E12  26918905.14323       243.80023        19.10023
E19  25232241.59624      1419.57724        26.20024
E21  27188508.50124      2856.77624        25.20024
E26  27637686.04124     -3217.40024        23.50024
E27  25076084.20223      1435.55023        19.10023
E29  23607212.98024       -10.73824        28.90024
E30  26526971.77322     -1163.40022        17.40022
> 2024 11 06 19 14 29.4357973  0 26                      
R10  23487566.49823      4320.75023        18.20023
R06  19774279.85323      -290.35023        17.80023
R22  23084478.75022     -2587.50022        17.30022
R09  20098377.38524      2602.77224        27.50024
R16  19976506.65423     -1701.25023        21.20023
R15  23850578.59023     -4314.60023        19.70023
R05  23449182.87023     -3038.90023        19.90023
R23  23495787.40721      -105.70021        12.20021
R07  20979730.63722      2332.45022        14.10022
G02  24989012.26921     -3065.55021        12.40021
G03  20094193.18125     -1118.52725        30.20025
G04  20718867.42824       831.32624        27.50024
G06  24085548.42421       658.50021        12.20021
G07  24010835.04722      2538.50022        16.10022
G09  22328378.18725      2149.59625        32.90025
G16  21727980.83423      1802.70023        23.30023
G26  21850115.08222     -1004.85022        16.20022
G28  25447195.57523     -3578.90023        20.70023
E07  25707076.06322     -1776.15022        12.70022
E12  26918828.48523       243.80023        19.10023
E19  25231948.48724      1420.53824        25.50024
E21  27187935.38624      2857.52924        27.20024
E26  27638254.53623     -3217.95023        22.60023
E27  25075793.79123      1438.40023        19.30023
E29  23607182.49024        -9.68324        29.10024
E30  26527162.82922     -1163.40022        17.40022
> 2024 11 06 19 14 30.4357972  0 26                      
R10  23486726.09423      4320.75023        18.20023
R06  19774304.65023      -290.35023        17.80023
R22  23084933.74922     -2587.50022        17.30022
R09  20097854.16124      2606.50024        24.70024
R16  19976774.58323     -1701.60023        22.70023
R15  23851356.46623     -4314.60023        19.70023
R05  23449678.04223     -3038.05023        23.00023
R23  23495777.42821      -105.70021        12.20021
R07  20979268.57122      2342.75022        16.40022
G02  24989565.90021     -3065.55021        12.40021
G03  20094366.07625     -1115.66025        31.00025
G04  20718675.77524       834.81424        29.20024
G06  24085393.34521       658.50021        12.20021
G07  24010322.01622      2538.50022        16.10022
G09  22327936.20825      2153.55025        32.30025
G16  21727593.41624      1801.51824        25.30024
G26  21850276.58422     -1004.85022        16.20022
G28  25447846.93823     -3578.90023        20.70023
E07  25707384.16422     -1776.15022        12.70022
E12  26918752.25223       243.80023        19.10023
E19  25231642.61324      1421.15024        23.80024
E21  27187360.89824      2862.52924        26.10024
E26  27638843.54323     -3215.40023        23.40023
E27  25075485.21923      1435.70023        19.90023
E29  23607153.62425        -5.55825        29.80025
E30  26527354.61122     -1163.40022        17.40022
> 2024 11 06 19 14 31.4357971  0 27                      
R10  23485819.28423      4328.80023        17.80023
R06  19774328.69623      -290.35023        17.80023
R22  23085387.99722     -2587.50022        17.30022
R09  20097347.87425      2607.40025        31.80025
R16  19977104.71723     -1699.65023        22.80023
R15  23852133.59023     -4314.60023        19.70023
R05  23450242.31424     -3038.92524        26.30024
R23  23495766.99721      -105.70021        12.20021
R07  20978786.86722      2339.55022        17.10022
G02  24990119.07921     -3065.55021        12.40021
G03  20094555.30724     -1115.08224        29.30024
G04  20718495.66224       834.31924        29.40024
G06  24085237.81521       658.50021        12.20021
G07  24009808.83422      2538.50022        16.10022
G09  22327499.47225      2154.55125        30.90025
G16  21727203.14923      1809.35023        22.90023
G26  21850419.64823     -1003.60023        18.20023
G28  25448497.55023     -3578.90023        20.70023
G31  22391393.93922     -3276.90022        17.30022
E07  25707692.11422     -1776.15022        12.70022
E12  26918675.56723       243.80023        19.10023
E19  25231338.08723      1427.80023        23.00023
E21  27186785.35924      2861.88424        28.40024
E26  27639422.20524     -3211.15024        24.50024
E27  25075177.69423      1440.05023        19.40023
E29  23607125.20624        -4.64124        29.20024
E30  26527545.64122     -1163.40022        17.40022
> 2024 11 06 19 14 32.4357970  0 27                      
R10  23485107.10323      4322.95023        18.50023
R06  19774353.40523      -290.35023        17.80023
R22  23085842.90822     -2587.50022        17.30022
R09  20096817.96725      2602.30725        33.70025
R16  19977367.16123     -1707.20023        21.20023
R15  23852911.07823     -4314.60023        19.70023
R05  23450776.97024     -3041.82124        26.20024
R23  23495756.93121      -105.70021        12.20021
R07  20978314.82023      2338.15023        18.20023
G02  24990672.32221     -3065.55021        12.40021
G03  20094732.01124     -1118.69024        28.80024
G04  20718302.42224       833.55124        29.30024
G06  24085082.64921       658.50021        12.20021
G07  24009296.01522      2538.50022        16.10022
G09  22327061.00225      2151.43825        29.50025
G16  21726860.31223      1805.20023        23.20023
G26  21850585.25923     -1007.30023        18.00023
G28  25449148.82623     -3578.90023        20.70023
G31  22391913.60623     -3282.70023        18.90023
E07  25707988.13522     -1761.00022        13.00022
E12  26918599.54623       243.80023        19.10023
E19  25231034.22323      1424.40023        22.00023
E21  27186212.88124      2860.27124        26.80024
E26  27640006.62624     -3212.67424        25.60024
E27  25074877.42823      1443.00023        19.00023
E29  23607095.35324        -7.57824        28.20024
E30  26527737.33422     -1163.40022        17.40022
> 2024 11 06 19 14 33.4357969  0 26                      
R10  23484194.09023      4330.35023        18.30023
R06  19774377.54323      -290.35023        17.80023
R22  23086297.54822     -2587.50022        17.30022
R09  20096300.08025      2607.07825        32.30025
R16  19977674.60323     -1698.75023        21.90023
R15  23853643.92521     -4299.90021        10.40021
R05  23451296.06524     -3036.72124        25.10024
R23  23495746.59221      -105.70021        12.20021
R07  20977866.78423      2349.80023        17.90023
G03  20094915.03924     -1115.39324        28.30024
G04  20718115.20724       837.89824        28.60024
G06  24084927.21121       658.50021        12.20021
G07  24008782.62522      2538.50022        16.10022
G09  22326616.26425      2155.95725        32.10025
G16  21726461.44323      1807.55023        22.30023
G26  21850767.38822     -1002.95022        16.80022
G28  25449799.82923     -3578.90023        20.70023
G31  22392544.22423     -3272.80023        18.80023
E07  25708293.17822     -1761.00022        13.00022
E12  26918493.87423       260.95023        19.20023
E19  25230733.08623      1424.40023        22.00023
E21  27185636.53524      2862.89724        28.60024
E26  27640585.98024     -3209.67524        26.10024
E27  25074578.98923      1438.15023        21.80023
E29  23607070.32524        -4.84524        29.20024
E30  26527928.45722     -1163.40022        17.40022
> 2024 11 06 19 14 34.4357967  0 26                      
R10  23483259.95123      4326.20023        19.60023
R06  19774372.16023      -290.35023        17.80023
R22  23086722.36822     -2587.50022        17.30022
R09  20095753.87225      2598.98925        33.50025
R16  19977942.93123     -1707.00023        21.10023
R15  23854388.62321     -4299.90021        10.40021
R05  23451828.81024     -3046.65024        24.60024
R23  23495706.43421      -105.70021        12.20021
R07  20977366.44522      2326.95022        16.60022
G03  20095080.53825     -1122.17525        30.40025
G04  20717902.06825       831.01925        29.80025
G06  24084741.95321       658.50021        12.20021
G07  24008239.71522      2538.50022        16.10022
G09  22326139.90824      2148.54124        29.00024
G16  21726075.02424      1795.90024        24.40024
G26  21850877.12623     -1006.05023        19.00023
G28  25450421.01323     -3578.90023        20.70023
G31  22393106.94823     -3272.80023        18.80023
E07  25708586.68922     -1760.90022        15.90022
E12  26918384.46323       260.95023        19.20023
E19  25230407.22622      1421.75022        15.80022
E21  27185034.86524      2857.97724        29.30024
E26  27641132.51524     -3215.31724        25.30024
E27  25074233.64223      1432.95023        20.50023
E29  23607005.88325       -10.39025        29.50025
E30  26528090.05922     -1163.40022        17.40022
> 2024 11 06 19 14 35.4357966  0 26                      
R10  23482418.15623      4326.20023        19.60023
R06  19774396.46623      -290.35023        17.80023
R22  23087177.17622     -2587.50022        17.30022
R09  20095228.35925      2603.96025        32.00025
R16  19978211.56824     -1703.95024        23.90024
R15  23855163.31021     -4299.90021        10.40021
R05  23452334.88223     -3044.25023        23.00023
R23  23495696.26421      -105.70021        12.20021
R07  20976838.53323      2337.55023        20.10023
G03  20095254.14125     -1116.96925        32.20025
G04  20717709.32425       836.48725        30.90025
G06  24084586.68321       658.50021        12.20021
G07  24007726.79222      2538.50022        16.10022
G09  22325710.32824      2155.62724        27.10024
G16  21725697.30923      1805.15023        22.60023
G26  21851054.62622      -999.80022        15.80022
G28  25451071.88523     -3578.90023        20.70023
G31  22393699.96023     -3272.80023        18.80023
E07  25708891.90022     -1760.90022        15.90022
E12  26918304.74123       260.95023        19.20023
E19  25230106.55722      1421.75022        15.80022
E21  27184456.58824      2863.90824        29.20024
E26  27641721.33024     -3208.69824        26.50024
E27  25073945.26523      1442.55023        19.70023
E29  23606981.62325        -4.54325        30.20025
E30  26528281.34922     -1163.40022        17.40022
> 2024 11 06 19 14 36.4357965  0 25                      
R10  23481684.28522      4348.85022        16.40022
R06  19774421.07023      -290.35023        17.80023
R22  23087631.98222     -2587.50022        17.30022
R09  20094714.83525      2626.45025        31.80025
R16  19978485.59923     -1681.65023        23.10023
R15  23855937.99521     -4299.90021        10.40021
R05  23452874.23023     -3020.65023        21.40023
R23  23495686.09221      -105.70021        12.20021
R07  20976498.58922      2363.95022        16.60022
G03  20095432.23925     -1094.97625        32.00025
G04  20717513.58125       859.09525        31.70025
G06  24084431.41221       658.50021        12.20021
G07  24007213.56922      2538.50022        16.10022
G09  22325269.35523      2179.25023        21.70023
G16  21725327.08624      1825.95024        25.60024
G26  21851231.52423      -979.25023        20.50023
G28  25451723.05623     -3578.90023        20.70023
E07  25709170.72822     -1745.05022        16.60022
E12  26918235.51023       275.30023        17.80023
E19  25229806.18622      1421.75022        15.80022
E21  27183882.80624      2885.33524        28.60024
E26  27642297.25324     -3188.03924        26.40024
E27  25073642.79524      1462.65024        24.40024
E29  23606948.96625        16.85525        30.80025
E30  26528472.93722     -1163.40022        17.40022
> 2024 11 06 19 14 37.4357964  0 26                      
R10  23480783.32223      4340.20023        19.60023
R06  19774445.56623      -290.35023        17.80023
R22  23088086.98022     -2587.50022        17.30022
R09  20094196.40725      2618.25925        31.70025
R16  19978784.10623     -1687.80023        23.10023
R15  23856712.87221     -4299.90021        10.40021
R05  23453424.56223     -3026.05023        22.90023
R23  23495676.11221      -105.70021        12.20021
R07  20975941.18823      2353.80023        23.40023
G03  20095609.32925     -1102.99825        32.50025
G04  20717322.82625       850.92725        31.00025
G06  24084276.33321       658.50021        12.20021
G07  24006700.83722      2538.50022        16.10022
G09  22324839.66523      2169.80023        22.60023
G16  21724959.75424      1815.25224        25.20024
G26  21851354.65223      -992.75023        19.20023
G28  25452374.41823     -3578.90023        20.70023
G31  22394886.17323     -3263.35023        22.30023
E07  25709473.13222     -1745.05022        16.60022
E12  26918123.00123       276.30023        18.50023
E19  25229505.70722      1421.75022        15.80022
E21  27183305.02024      2877.38624        28.20024
E26  27642875.16624     -3198.13724        25.60024
E27  25073340.51824      1455.45024        24.50024
E29  23606915.90225         9.12225        31.10025
E30  26528432.07922     -1101.35022        13.50022
> 2024 11 06 19 14 38.4357963  0 26                      
R10  23479975.31923      4332.80023        20.90023
R06  19774498.26822      -265.75022        13.10022
R22  23088541.70322     -2587.50022        17.30022
R09  20093689.69625      2608.12825        29.70025
R16  19979045.76323     -1699.40023        23.30023
R15  23857487.47321     -4299.90021        10.40021
R05  23453950.03624     -3026.68424        25.40024
R23  23495665.85721      -105.70021        12.20021
R07  20975474.05024      2343.83024        26.80024
G03  20095787.34425     -1112.92325        32.20025
