# 
# Header Description:
# 
# Version: v3.1.0.3 Platform: 10 Manufacturer: Google Model: Pixel 3 XL GNSS Hardware Model Name: crosshatch;MPSS.AT.4.0.c2.17-00096-SDM845_GEN_PACK-1;
# 
# Raw,utcTimeMillis,TimeNanos,LeapSecond,TimeUncertaintyNanos,FullBiasNanos,BiasNanos,BiasUncertaintyNanos,DriftNanosPerSecond,DriftUncertaintyNanosPerSecond,HardwareClockDiscontinuityCount,Svid,TimeOffsetNanos,State,ReceivedSvTimeNanos,ReceivedSvTimeUncertaintyNanos,Cn0DbHz,PseudorangeRateMetersPerSecond,PseudorangeRateUncertaintyMetersPerSecond,AccumulatedDeltaRangeState,AccumulatedDeltaRangeMeters,AccumulatedDeltaRangeUncertaintyMeters,CarrierFrequencyHz,CarrierCycles,CarrierPhase,CarrierPhaseUncertainty,MultipathIndicator,SnrInDb,ConstellationType,AgcDb,BasebandCn0DbHz,FullInterSignalBiasNanos,FullInterSignalBiasUncertaintyNanos,SatelliteInterSignalBiasNanos,SatelliteInterSignalBiasUncertaintyNanos,CodeType,ChipsetElapsedRealtimeNanos,IsFullTracking
# 
# UncalAccel,utcTimeMillis,elapsedRealtimeNanos,UncalAccelXMps2,UncalAccelYMps2,UncalAccelZMps2,BiasXMps2,BiasYMps2,BiasZMps2
# 
# Accel,utcTimeMillis,elapsedRealtimeNanos,AccelXMps2,AccelYMps2,AccelZMps2
# 
# UncalGyro,utcTimeMillis,elapsedRealtimeNanos,UncalGyroXRadPerSec,UncalGyroYRadPerSec,UncalGyroZRadPerSec,DriftXRadPerSec,DriftYRadPerSec,DriftZRadPerSec
# 
# Gyro,utcTimeMillis,elapsedRealtimeNanos,GyroXRadPerSec,GyroYRadPerSec,GyroZRadPerSec
# 
# UncalMag,utcTimeMillis,elapsedRealtimeNanos,UncalMagXMicroT,UncalMagYMicroT,UncalMagZMicroT,BiasXMicroT,BiasYMicroT,BiasZMicroT
# 
# Mag,utcTimeMillis,elapsedRealtimeNanos,MagXMicroT,MagYMicroT,MagZMicroT
# 
# Pressure,utcTimeMillis,elapsedRealtimeNanos,PressureHpa
# 
# OrientationDeg,utcTimeMillis,elapsedRealtimeNanos,yawDeg,rollDeg,pitchDeg
# 
# Fix,Provider,LatitudeDegrees,LongitudeDegrees,AltitudeMeters,SpeedMps,AccuracyMeters,BearingDegrees,UnixTimeMillis,SpeedAccuracyMps,BearingAccuracyDegrees,elapsedRealtimeNanos,VerticalAccuracyMeters,MockLocation,NumberOfUsedSignals,VerticalSpeedAccuracyMps,SolutionType
# 
# Nav,Svid,Type,Status,MessageId,Sub-messageId,Data(Bytes)
# 
# Status,UnixTimeMillis,SignalCount,SignalIndex,ConstellationType,Svid,CarrierFrequencyHz,Cn0DbHz,AzimuthDegrees,ElevationDegrees,UsedInFix,HasAlmanacData,HasEphemerisData,BasebandCn0DbHz
# 
# Agc,utcTimeMillis,TimeNanos,LeapSecond,TimeUncertaintyNanos,FullBiasNanos,BiasNanos,BiasUncertaintyNanos,DriftNanosPerSecond,DriftUncertaintyNanosPerSecond,HardwareClockDiscontinuityCount,AgcDb,CarrierFrequencyHz,ConstellationType
# 
UncalAccel,1730920418720,341326849798282,-0.4103205,-0.13994378,10.078755,0.0,0.0,0.0
UncalMag,1730920418720,341326849418595,293.13275,-19.747108,-377.8584,292.4399,-10.820129,-326.40997
UncalGyro,1730920418723,341326852291355,-0.039942663,-0.031185895,0.0046308264,0.00024146058,-0.00015943254,-0.0016218966
UncalAccel,1730920418730,341326859784480,-0.45350185,-0.14471687,10.093085,0.0,0.0,0.0
UncalMag,1730920418730,341326859377762,292.97443,-19.554459,-377.94788,292.4399,-10.820129,-326.40997
UncalMag,1730920418740,341326869334689,292.9448,-19.7482,-377.64734,292.4399,-10.820129,-326.40997
UncalAccel,1730920418740,341326869770835,-0.50148034,-0.1399363,10.083533,0.0,0.0,0.0
UncalAccel,1730920418750,341326879757189,-0.50148696,-0.13993248,10.07398,0.0,0.0,0.0
UncalMag,1730920418750,341326879290626,293.13293,-19.752274,-378.0136,292.4399,-10.820129,-326.40997
UncalMag,1730920418760,341326889247970,293.1622,-19.548204,-378.00375,292.4399,-10.820129,-326.40997
UncalAccel,1730920418760,341326889743543,-0.51108795,-0.101714104,10.040546,0.0,0.0,0.0
UncalGyro,1730920418758,341326887243543,0.013320549,-0.019467888,0.023805343,0.00024146058,-0.00015943254,-0.0016218966
Pressure,1730920418765,341326894262085,1012.11145
Fix,FLP,37.4267721000,-122.1769171000,3.022965687271718,0.4786202,5.36,166.83443,1730920417793,0.1,45.0,341325922066238,11.172402,,,,
UncalMag,1730920418770,341326899207918,293.03918,-19.760563,-378.1408,292.4399,-10.820129,-326.40997
UncalAccel,1730920418770,341326899729949,-0.52068895,-0.1017103,10.0118885,0.0,0.0,0.0
UncalGyro,1730920418767,341326897229949,0.023440562,-0.014674172,0.021142118,0.00024146058,-0.00015943254,-0.0016218966
Status,,29,0,1,3,1575420030,36.10,177.0,77.0,1,1,0,
Status,,29,1,1,4,1575420030,23.10,324.0,59.0,1,1,0,
Status,,29,2,1,7,1575420030,17.20,232.0,18.0,0,1,0,
Status,,29,3,1,16,1575420030,30.50,118.0,39.0,1,1,0,
Status,,29,4,1,26,1575420030,26.70,71.0,38.0,1,1,0,
Status,,29,5,1,28,1575420030,20.10,49.0,4.0,0,1,0,
Status,,29,6,1,31,1575420030,28.50,46.0,33.0,1,1,0,
Status,,29,7,1,2,1575420030,0.00,201.0,7.0,0,1,0,
Status,,29,8,1,6,1575420030,0.00,307.0,16.0,0,1,0,
Status,,29,9,1,9,1575420030,0.00,296.0,33.0,0,1,0,
Status,,29,10,3,6,1602000000,22.30,49.0,61.0,0,1,0,
Status,,29,11,3,22,1602000000,14.20,272.0,15.0,0,1,0,
Status,,29,12,3,9,1602000000,31.90,174.0,52.0,1,1,0,
Status,,29,13,3,16,1602000000,38.50,53.0,56.0,1,1,0,
Status,,29,14,3,15,1602000000,24.80,26.0,7.0,0,1,0,
Status,,29,15,3,5,1602000000,21.60,106.0,11.0,1,1,0,
Status,,29,16,3,7,1602000000,21.20,327.0,39.0,1,1,0,
Status,,29,17,3,23,1602000000,0.00,319.0,11.0,0,1,0,
Status,,29,18,3,21,1602000000,0.00,0.0,0.0,0,1,0,
Status,,29,19,2,133,1575420030,35.60,0.0,0.0,0,0,0,
Status,,29,20,6,7,1575420030,24.60,75.0,32.0,1,1,0,
Status,,29,21,6,21,1575420030,20.90,170.0,16.0,1,1,0,
Status,,29,22,6,26,1575420030,35.30,195.0,11.0,0,1,0,
Status,,29,23,6,27,1575420030,37.80,115.0,41.0,1,1,0,
Status,,29,24,6,29,1575420030,33.40,354.0,67.0,0,1,0,
Status,,29,25,6,30,1575420030,23.80,54.0,25.0,1,1,0,
Status,,29,26,6,10,1575420030,0.00,323.0,9.0,0,1,0,
Status,,29,27,6,12,1575420030,0.00,303.0,22.0,0,1,0,
Status,,29,28,6,19,1575420030,0.00,292.0,34.0,0,1,0,
UncalMag,1730920418780,341326909167085,293.27945,-18.737095,-378.11948,292.4399,-10.820129,-326.40997
UncalGyro,1730920418778,341326907216303,0.0255711,-0.006152033,0.015283102,0.00024146058,-0.00015943254,-0.0016218966
UncalAccel,1730920418780,341326909716303,-0.47752076,-0.12559068,9.954571,0.0,0.0,0.0
UncalMag,1730920418789,341326919125001,293.40244,-18.524738,-377.98242,292.4399,-10.820129,-326.40997
UncalAccel,1730920418790,341326919702657,-0.43914986,-0.13514061,9.892477,0.0,0.0,0.0
UncalGyro,1730920418788,341326917202657,0.021310057,0.0013048423,0.008891456,0.00024146058,-0.00015943254,-0.0016218966
UncalMag,1730920418800,341326929080210,293.37695,-19.27075,-376.0324,292.4399,-10.820129,-326.40997
UncalAccel,1730920418800,341326929689012,-0.4247648,-0.13991365,9.925914,0.0,0.0,0.0
UncalGyro,1730920418798,341326927189012,0.010124801,-0.000825654,0.008358759,0.00024146058,-0.00015943254,-0.0016218966
OrientationDeg,1730920418800,341326929689012,169.0,2.0,0.0
Raw,1730920417435,475500203000000,,,-1414480135232802307,0.5863494873046875,105.85599375190213,176.14781034344665,16.156465299920043,8,6,0.0,207,80017369843885,35,22.3,65.0932388305664,1.0,16,0.0,0.0,1599750020,,,,0,,3,2.38,,,,,,,,
Raw,1730920417435,475500203000000,,,-1414480135232802307,0.5863494873046875,105.85599375190213,176.14781034344665,16.156465299920043,8,22,0.0,207,80017358851698,2564,14.2,488.34149169921875,24.53350067138672,16,0.0,0.0,1600312450,,,,0,,3,2.38,,,,,,,,
Raw,1730920417435,475500203000000,,,-1414480135232802307,0.5863494873046875,105.85599375190213,176.14781034344665,16.156465299920043,8,9,0.0,207,80017368701740,13,31.9,-474.3070068359375,0.23720000684261322,16,0.0,0.0,1600875010,,,,0,,3,2.38,,,,,,,,
Raw,1730920417435,475500203000000,,,-1414480135232802307,0.5863494873046875,105.85599375190213,176.14781034344665,16.156465299920043,8,16,0.0,207,80017369199590,6,38.5,330.9070129394531,0.23360000550746918,16,0.0,0.0,1601437440,,,,0,,3,2.38,,,,,,,,
Raw,1730920417435,475500203000000,,,-1414480135232802307,0.5863494873046875,105.85599375190213,176.14781034344665,16.156465299920043,8,15,0.0,207,80017356332438,27,24.8,821.4070434570312,0.8904999494552612,16,0.0,0.0,1602000000,,,,0,,3,2.38,,,,,,,,
Raw,1730920417435,475500203000000,,,-1414480135232802307,0.5863494873046875,105.85599375190213,176.14781034344665,16.156465299920043,8,5,0.0,207,80017357644950,40,21.6,585.89599609375,1.0720000267028809,16,0.0,0.0,1602562560,,,,0,,3,2.38,,,,,,,,
Raw,1730920417435,475500203000000,,,-1414480135232802307,0.5863494873046875,105.85599375190213,176.14781034344665,16.156465299920043,8,7,0.0,207,80017365768259,40,21.2,-418.8898620605469,1.0540000200271606,16,0.0,0.0,1604812540,,,,0,,3,2.38,,,,,,,,
Raw,1730920417435,475500203000000,,,-1414480135232802307,0.5863494873046875,105.85599375190213,176.14781034344665,16.156465299920043,8,3,0.0,15,328435368795188,8,36.1,226.41090393066406,0.03319999948143959,16,0.0,0.0,1575420030,,,,0,,1,0.14,,,,,,,,
Raw,1730920417435,475500203000000,,,-1414480135232802307,0.5863494873046875,105.85599375190213,176.14781034344665,16.156465299920043,8,4,0.0,15,328435366669591,31,23.1,-141.94004821777344,0.7354999780654907,16,0.0,0.0,1575420030,,,,0,,1,0.14,,,,,,,,
Raw,1730920417435,475500203000000,,,-1414480135232802307,0.5863494873046875,105.85599375190213,176.14781034344665,16.156465299920043,8,7,0.0,15,328435355651775,79,17.2,-467.68475341796875,2.689000129699707,16,0.0,0.0,1575420030,,,,0,,1,0.14,,,,,,,,
Raw,1730920417435,475500203000000,,,-1414480135232802307,0.5863494873046875,105.85599375190213,176.14781034344665,16.156465299920043,8,16,0.0,15,328435363282427,14,30.5,-329.3138732910156,0.030300000682473183,16,0.0,0.0,1575420030,,,,0,,1,0.14,,,,,,,,
Raw,1730920417435,475500203000000,,,-1414480135232802307,0.5863494873046875,105.85599375190213,176.14781034344665,16.156465299920043,8,26,0.0,15,328435362935626,21,26.7,204.444580078125,0.11420000344514847,16,0.0,0.0,1575420030,,,,0,,1,0.14,,,,,,,,
Raw,1730920417435,475500203000000,,,-1414480135232802307,0.5863494873046875,105.85599375190213,176.14781034344665,16.156465299920043,8,28,0.0,15,328435350992695,46,20.1,694.8192749023438,0.9314999580383301,16,0.0,0.0,1575420030,,,,0,,1,0.14,,,,,,,,
Raw,1730920417435,475500203000000,,,-1414480135232802307,0.5863494873046875,105.85599375190213,176.14781034344665,16.156465299920043,8,31,0.0,15,328435361183436,17,28.5,640.8857421875,0.03480000048875809,16,0.0,0.0,1575420030,,,,0,,1,0.14,,,,,,,,
Raw,1730920417435,475500203000000,,,-1414480135232802307,0.5863494873046875,105.85599375190213,176.14781034344665,16.156465299920043,8,7,0.0,7183,328435350086721,27,24.6,353.0423278808594,0.5534999966621399,16,0.0,0.0,1575420030,,,,0,,6,0.15,,,,,,,,
Raw,1730920417435,475500203000000,,,-1414480135232802307,0.5863494873046875,105.85599375190213,176.14781034344665,16.156465299920043,8,21,0.0,7183,328435345047403,46,20.9,-527.1039428710938,0.7519999742507935,16,0.0,0.0,1575420030,,,,0,,6,0.15,,,,,,,,
Raw,1730920417435,475500203000000,,,-1414480135232802307,0.5863494873046875,105.85599375190213,176.14781034344665,16.156465299920043,8,26,0.0,7183,328435343676369,9,35.3,629.8684692382812,0.04410000145435333,16,0.0,0.0,1575420030,,,,0,,6,0.15,,,,,,,,
Raw,1730920417435,475500203000000,,,-1414480135232802307,0.5863494873046875,105.85599375190213,176.14781034344665,16.156465299920043,8,27,0.0,7183,328435352123247,7,37.8,-258.4599304199219,0.044600002467632294,16,0.0,0.0,1575420030,,,,0,,6,0.15,,,,,,,,
Raw,1730920417435,475500203000000,,,-1414480135232802307,0.5863494873046875,105.85599375190213,176.14781034344665,16.156465299920043,8,29,0.0,7183,328435357053348,11,33.4,18.809999465942383,0.04840000346302986,16,0.0,0.0,1575420030,,,,0,,6,0.15,,,,,,,,
Raw,1730920417435,475500203000000,,,-1414480135232802307,0.5863494873046875,105.85599375190213,176.14781034344665,16.156465299920043,8,30,0.0,7183,328435347337510,31,23.8,226.0498504638672,0.6200000047683716,16,0.0,0.0,1575420030,,,,0,,6,0.15,,,,,,,,
Pressure,1730920418805,341326934261043,1012.08813
Fix,GPS,37.4267755000,-122.1769210800,4.47625732421875,0.0,5.36,,1730920418000,0.12206556,,341326912814931,12.0,,,,
Fix,FLP,37.4267750000,-122.1769207000,3.078456125044669,0.15042873,5.36,272.1112,1730920418783,0.12206556,45.0,341326912814931,11.119688,,,,
OrientationDeg,1730920418810,341326939675366,169.0,2.0,0.0
UncalAccel,1730920418810,341326939675366,-0.40078548,-0.16857088,10.01189,0.0,0.0,0.0
UncalMag,1730920418810,341326939036564,293.97314,-19.5847,-374.07523,292.4399,-10.820129,-326.40997
UncalGyro,1730920418808,341326937175366,-0.009582565,-0.0002929913,0.014217643,0.00024146058,-0.00015943254,-0.0016218966
UncalAccel,1730920418820,341326949661720,-0.45835838,-0.18767448,10.035773,0.0,0.0,0.0
UncalMag,1730920418819,341326948993178,293.57025,-19.85808,-375.68027,292.4399,-10.820129,-326.40997
UncalGyro,1730920418818,341326947161720,-0.028224666,0.0045007253,0.015282841,0.00024146058,-0.00015943254,-0.0016218966
OrientationDeg,1730920418820,341326949661720,169.0,2.0,0.0
UncalAccel,1730920418830,341326959648074,-0.49674255,-0.24021584,10.045327,0.0,0.0,0.0
UncalMag,1730920418829,341326958949897,293.4722,-19.308935,-377.30182,292.4399,-10.820129,-326.40997
UncalGyro,1730920418827,341326957148074,-0.033550974,-0.0013581931,0.009956459,0.00024146058,-0.00015943254,-0.0016218966
OrientationDeg,1730920418830,341326959648074,169.0,2.0,0.0
UncalMag,1730920418838,341326968907085,293.62463,-18.89767,-377.31006,292.4399,-10.820129,-326.40997
UncalAccel,1730920418840,341326969634428,-0.5111407,-0.2067743,10.093092,0.0,0.0,0.0
UncalGyro,1730920418838,341326967134428,-0.033550963,-0.0056192167,0.004630076,0.00024146058,-0.00015943254,-0.0016218966
OrientationDeg,1730920418840,341326969634428,169.0,2.0,0.0
Pressure,1730920418845,341326974262085,1012.0453
UncalMag,1730920418849,341326978865366,293.2566,-19.560568,-378.49722,292.4399,-10.820129,-326.40997
UncalAccel,1730920418850,341326979620782,-0.45358098,-0.21632423,10.088316,0.0,0.0,0.0
UncalGyro,1730920418848,341326977120782,-0.03142043,-0.00082549965,0.009423696,0.00024146058,-0.00015943254,-0.0016218966
OrientationDeg,1730920418850,341326979620782,169.0,2.0,0.0
UncalMag,1730920418859,341326988823699,293.97052,-19.078903,-377.1213,292.4399,-10.820129,-326.40997
UncalAccel,1730920418860,341326989607137,-0.4008184,-0.2354277,10.045329,0.0,0.0,0.0
UncalGyro,1730920418858,341326987107137,-0.030887783,0.0013050584,0.016347844,0.00024146058,-0.00015943254,-0.0016218966
OrientationDeg,1730920418860,341326989607137,169.0,2.0,0.0
UncalMag,1730920418869,341326998780210,294.27972,-18.813812,-375.6435,292.4399,-10.820129,-326.40997
UncalAccel,1730920418870,341326999593491,-0.39123064,-0.2784155,10.007118,0.0,0.0,0.0
UncalGyro,1730920418868,341326997093491,-0.029289879,0.00077245734,0.021141464,0.00024146058,-0.00015943254,-0.0016218966
OrientationDeg,1730920418870,341326999593491,169.0,2.0,0.0
UncalAccel,1730920418880,341327009579845,-0.37204844,-0.27363488,9.988012,0.0,0.0,0.0
UncalGyro,1730920418878,341327007079845,-0.0298225,-0.003488566,0.020076137,0.00024146058,-0.00015943254,-0.0016218966
UncalMag,1730920418879,341327008739532,293.94058,-19.262314,-376.51044,292.4399,-10.820129,-326.40997
OrientationDeg,1730920418880,341327009579845,169.0,2.0,0.0
Pressure,1730920418885,341327014260262,1012.03735
UncalMag,1730920418889,341327018697293,293.31372,-19.111122,-377.23608,292.4399,-10.820129,-326.40997
UncalGyro,1730920418888,341327017066199,-0.03355091,-0.0072169574,0.026467651,0.00024146058,-0.00015943254,-0.0016218966
UncalAccel,1730920418890,341327019566199,-0.3480691,-0.2258628,10.007119,0.0,0.0,0.0
OrientationDeg,1730920418890,341327019566199,169.0,2.0,0.0
UncalAccel,1730920418900,341327029552553,-0.381656,-0.21152854,10.035779,0.0,0.0,0.0
UncalMag,1730920418898,341327028653960,293.3501,-19.547112,-378.21478,292.4399,-10.820129,-326.40997
UncalGyro,1730920418898,341327027052553,-0.0351488,-0.001890609,0.03392443,0.00024146058,-0.00015943254,-0.0016218966
OrientationDeg,1730920418900,341327029552553,169.0,2.0,0.0
OrientationDeg,1730920418910,341327039538907,169.0,2.0,0.0
UncalAccel,1730920418910,341327039538907,-0.44882336,-0.23063204,10.10265,0.0,0.0,0.0
UncalGyro,1730920418908,341327037038907,-0.039942473,0.008762057,0.03179384,0.00024146058,-0.00015943254,-0.0016218966
UncalMag,1730920418909,341327038611303,293.47272,-19.324427,-377.76736,292.4399,-10.820129,-326.40997
UncalGyro,1730920418918,341327047025262,-0.029822458,0.018882092,0.01847798,0.00024146058,-0.00015943254,-0.0016218966
UncalAccel,1730920418920,341327049525262,-0.49680188,-0.21629784,10.064439,0.0,0.0,0.0
UncalMag,1730920418919,341327048569064,293.80533,-18.251356,-376.37732,292.4399,-10.820129,-326.40997
OrientationDeg,1730920418920,341327049525262,169.0,2.0,0.0
Pressure,1730920418925,341327054261564,1012.0623
UncalGyro,1730920418928,341327057011616,-0.009582441,0.025273703,0.007825278,0.00024146058,-0.00015943254,-0.0016218966
UncalAccel,1730920418930,341327059511616,-0.45363376,-0.15419525,10.031005,0.0,0.0,0.0
UncalMag,1730920418929,341327058527970,293.59344,-19.044935,-375.61288,292.4399,-10.820129,-326.40997
OrientationDeg,1730920418930,341327059511616,169.0,2.0,0.0
OrientationDeg,1730920418940,341327069497970,169.0,2.0,0.0
UncalMag,1730920418939,341327068487293,293.3482,-19.490309,-376.50784,292.4399,-10.820129,-326.40997
UncalGyro,1730920418937,341327066997970,0.0047986265,0.032197945,0.0030315274,0.00024146058,-0.00015943254,-0.0016218966
UncalAccel,1730920418940,341327069497970,-0.4584375,-0.16374514,10.031005,0.0,0.0,0.0
UncalAccel,1730920418950,341327079484324,-0.43445817,-0.15896454,10.016676,0.0,0.0,0.0
UncalGyro,1730920418946,341327076984324,0.013853377,0.02687166,0.00036830315,0.00024146058,-0.00015943254,-0.0016218966
UncalMag,1730920418949,341327078446355,293.06155,-18.921598,-377.29752,292.4399,-10.820129,-326.40997
OrientationDeg,1730920418950,341327079484324,169.0,2.0,0.0
UncalMag,1730920418959,341327088403699,293.40088,-18.47826,-376.58572,292.4399,-10.820129,-326.40997
UncalAccel,1730920418960,341327089470678,-0.39128995,-0.18762171,10.035783,0.0,0.0,0.0
UncalGyro,1730920418957,341327086970678,0.013320755,0.015686424,-0.0001643938,0.00024146058,-0.00015943254,-0.0016218966
OrientationDeg,1730920418960,341327089470678,169.0,2.0,0.0
Pressure,1730920418965,341327094260522,1012.0915
UncalMag,1730920418969,341327098362970,293.84164,-18.68735,-377.35608,292.4399,-10.820129,-326.40997
UncalAccel,1730920418969,341327099457032,-0.37210783,-0.21150216,10.069219,0.0,0.0,0.0
UncalGyro,1730920418967,341327096957032,0.00266813,0.0034359244,0.0046292264,0.00024146058,-0.00015943254,-0.0016218966
OrientationDeg,1730920418970,341327099457032,169.0,2.0,0.0
UncalAccel,1730920418980,341327109443387,-0.40569475,-0.2210521,10.088325,0.0,0.0,0.0
UncalMag,1730920418979,341327108325730,293.50183,-19.115196,-377.60233,292.4399,-10.820129,-326.40997
UncalGyro,1730920418977,341327106943387,-0.007984495,-0.002955626,0.003563898,0.00024146058,-0.00015943254,-0.0016218966
OrientationDeg,1730920418980,341327109443387,169.0,2.0,0.0
UncalMag,1730920418989,341327118287032,293.59656,-19.137888,-378.40616,292.4399,-10.820129,-326.40997
UncalGyro,1730920418987,341327116929741,-0.010647643,-0.009879808,0.0030312007,0.00024146058,-0.00015943254,-0.0016218966
UncalAccel,1730920418990,341327119429741,-0.43448454,-0.22582513,10.035785,0.0,0.0,0.0
OrientationDeg,1730920418990,341327119429741,169.0,2.0,0.0
UncalMag,1730920418999,341327128246616,293.49683,-18.537104,-378.4759,292.4399,-10.820129,-326.40997
UncalAccel,1730920419000,341327129416147,-0.4344911,-0.22582138,10.131315,0.0,0.0,0.0
UncalGyro,1730920418997,341327126916147,-0.016506582,-0.016271358,0.0014332402,0.00024146058,-0.00015943254,-0.0016218966
OrientationDeg,1730920419000,341327129416147,169.0,2.0,0.0
Pressure,1730920419005,341327134265522,1012.0621
UncalMag,1730920419009,341327138205887,292.99713,-18.725822,-377.41492,292.4399,-10.820129,-326.40997
UncalAccel,1730920419010,341327139402501,-0.40571457,-0.23059441,10.136091,0.0,0.0,0.0
OrientationDeg,1730920419010,341327139402501,169.0,2.0,0.0
UncalGyro,1730920419007,341327136902501,-0.023963418,-0.008814483,0.0009005433,0.00024146058,-0.00015943254,-0.0016218966
UncalMag,1730920419019,341327148164949,292.9036,-18.739277,-377.69733,292.4399,-10.820129,-326.40997
UncalAccel,1730920419020,341327149388855,-0.36734357,-0.221037,10.073998,0.0,0.0,0.0
UncalGyro,1730920419017,341327146888855,-0.0154412985,0.00024028798,-0.0028279445,0.00024146058,-0.00015943254,-0.0016218966
OrientationDeg,1730920419020,341327149388855,169.0,2.0,0.0
UncalMag,1730920419029,341327158123543,292.99747,-18.73615,-377.72528,292.4399,-10.820129,-326.40997
UncalAccel,1730920419030,341327159375210,-0.40572774,-0.28313208,10.0501175,0.0,0.0,0.0
UncalGyro,1730920419027,341327156875210,0.0053313505,0.00982769,-0.0022953781,0.00024146058,-0.00015943254,-0.0016218966
OrientationDeg,1730920419030,341327159375210,169.0,2.0,0.0
UncalMag,1730920419039,341327168081512,293.2793,-18.731934,-377.96432,292.4399,-10.820129,-326.40997
UncalAccel,1730920419040,341327169361564,-0.42972028,-0.25924414,10.054894,0.0,0.0,0.0
UncalGyro,1730920419037,341327166861564,0.022908209,0.02101299,-0.0060238657,0.00024146058,-0.00015943254,-0.0016218966
OrientationDeg,1730920419040,341327169361564,169.0,2.0,0.0
Pressure,1730920419045,341327174263387,1012.0679
UncalMag,1730920419049,341327178040210,293.033,-19.146324,-377.92816,292.4399,-10.820129,-326.40997
UncalAccel,1730920419050,341327179347918,-0.40094376,-0.23535615,10.00713,0.0,0.0,0.0
UncalGyro,1730920419047,341327176847918,0.03249559,0.032198288,-0.0044260356,0.00024146058,-0.00015943254,-0.0016218966
OrientationDeg,1730920419050,341327179347918,169.0,2.0,0.0
UncalMag,1730920419058,341327187996564,293.32068,-19.74602,-378.06952,292.4399,-10.820129,-326.40997
UncalAccel,1730920419059,341327189334272,-0.3865587,-0.21624511,9.968919,0.0,0.0,0.0
UncalGyro,1730920419057,341327186834272,0.033028234,0.031665687,-0.002295574,0.00024146058,-0.00015943254,-0.0016218966
OrientationDeg,1730920419060,341327189334272,169.0,2.0,0.0
UncalMag,1730920419068,341327197952032,292.91016,-19.363846,-378.2204,292.4399,-10.820129,-326.40997
UncalAccel,1730920419070,341327199320626,-0.4201457,-0.15891932,10.050119,0.0,0.0,0.0
UncalGyro,1730920419067,341327196820626,0.02024508,0.018349923,-0.0017630074,0.00024146058,-0.00015943254,-0.0016218966
OrientationDeg,1730920419070,341327199320626,169.0,2.0,0.0
UncalMag,1730920419078,341327207907241,292.81024,-18.757896,-378.13495,292.4399,-10.820129,-326.40997
UncalAccel,1730920419080,341327209306980,-0.4777186,-0.13025455,10.059672,0.0,0.0,0.0
UncalGyro,1730920419077,341327206806980,-0.0010601792,0.009295213,0.0014327178,0.00024146058,-0.00015943254,-0.0016218966
OrientationDeg,1730920419080,341327209306980,169.0,2.0,0.0
Pressure,1730920419085,341327214261355,1012.08844
UncalMag,1730920419088,341327217861407,293.00473,-19.381374,-378.86905,292.4399,-10.820129,-326.40997
UncalGyro,1730920419087,341327216793335,-0.021300176,-0.0061510773,-0.0049589286,0.00024146058,-0.00015943254,-0.0016218966
UncalAccel,1730920419090,341327219293335,-0.47772518,-0.15891184,10.0119095,0.0,0.0,0.0
OrientationDeg,1730920419090,341327219293335,169.0,2.0,0.0
UncalMag,1730920419098,341327227816772,292.88174,-19.593735,-379.00616,292.4399,-10.820129,-326.40997
UncalAccel,1730920419100,341327229279689,-0.4537458,-0.16368486,10.06445,0.0,0.0,0.0
UncalGyro,1730920419097,341327226779689,-0.034615956,-0.030119477,-0.00975268,0.00024146058,-0.00015943254,-0.0016218966
OrientationDeg,1730920419100,341327229279689,169.0,2.0,0.0
UncalMag,1730920419108,341327237773699,293.2855,-19.346172,-378.17697,292.4399,-10.820129,-326.40997
UncalAccel,1730920419110,341327239266043,-0.4537524,-0.1684579,10.10744,0.0,0.0,0.0
UncalGyro,1730920419107,341327236766043,-0.042072795,-0.046098396,-0.012415905,0.00024146058,-0.00015943254,-0.0016218966
OrientationDeg,1730920419110,341327239266043,169.0,2.0,0.0
UncalMag,1730920419118,341327247730314,293.28534,-19.34101,-378.02185,292.4399,-10.820129,-326.40997
UncalAccel,1730920419120,341327249252397,-0.4153815,-0.20189202,10.131324,0.0,0.0,0.0
UncalGyro,1730920419117,341327246752397,-0.048464365,-0.04343521,-0.013481233,0.00024146058,-0.00015943254,-0.0016218966
OrientationDeg,1730920419120,341327249252397,169.0,2.0,0.0
Pressure,1730920419125,341327254270157,1012.0874
UncalMag,1730920419128,341327257687449,293.373,-18.72364,-377.83707,292.4399,-10.820129,-326.40997
UncalAccel,1730920419130,341327259238751,-0.3530245,-0.23532602,10.074006,0.0,0.0,0.0
UncalGyro,1730920419127,341327256738751,-0.04686646,-0.031717278,-0.014546562,0.00024146058,-0.00015943254,-0.0016218966
OrientationDeg,1730920419130,341327259238751,169.0,2.0,1.0
UncalMag,1730920419138,341327267643491,293.53146,-18.921453,-377.9028,292.4399,-10.820129,-326.40997
OrientationDeg,1730920419140,341327269225105,169.0,2.0,1.0
UncalAccel,1730920419140,341327269225105,-0.33384234,-0.22099183,10.045347,0.0,0.0,0.0
UncalGyro,1730920419137,341327266725105,-0.022898018,-0.025858298,-0.008687677,0.00024146058,-0.00015943254,-0.0016218966
UncalMag,1730920419148,341327277599480,293.0681,-19.546167,-377.8206,292.4399,-10.820129,-326.40997
UncalAccel,1730920419150,341327279211460,-0.30986294,-0.19710383,10.069231,0.0,0.0,0.0
UncalGyro,1730920419147,341327276711460,0.013853582,-0.018934054,-0.006024584,0.00024146058,-0.00015943254,-0.0016218966
OrientationDeg,1730920419150,341327279211460,169.0,2.0,1.0
UncalMag,1730920419158,341327287556616,292.78027,-18.941307,-377.52408,292.4399,-10.820129,-326.40997
UncalAccel,1730920419160,341327289197814,-0.31946394,-0.22098428,10.059678,0.0,0.0,0.0
UncalGyro,1730920419156,341327286697814,0.033028334,0.008762828,-0.0038941223,0.00024146058,-0.00015943254,-0.0016218966
OrientationDeg,1730920419160,341327289197814,169.0,2.0,1.0
Pressure,1730920419165,341327294263491,1012.0702
UncalMag,1730920419168,341327297512397,292.9689,-18.960875,-378.35587,292.4399,-10.820129,-326.40997
UncalAccel,1730920419169,341327299184168,-0.3386593,-0.21142685,10.045349,0.0,0.0,0.0
UncalGyro,1730920419167,341327296684168,0.029299924,0.034861814,-0.0060247146,0.00024146058,-0.00015943254,-0.0016218966
OrientationDeg,1730920419170,341327299184168,169.0,2.0,1.0
UncalMag,1730920419178,341327307467657,293.56073,-18.717386,-377.89294,292.4399,-10.820129,-326.40997
UncalAccel,1730920419180,341327309170522,-0.40582666,-0.18753886,10.026245,0.0,0.0,0.0
UncalGyro,1730920419177,341327306670522,0.023440985,0.046047114,-0.012948993,0.00024146058,-0.00015943254,-0.0016218966
OrientationDeg,1730920419180,341327309170522,169.0,2.0,0.0
UncalMag,1730920419188,341327317423595,293.5841,-17.909407,-377.98077,292.4399,-10.820129,-326.40997
UncalGyro,1730920419187,341327316656876,0.0138536235,0.043383986,-0.01667748,0.00024146058,-0.00015943254,-0.0016218966
UncalAccel,1730920419190,341327319156876,-0.45380515,-0.16842777,10.045351,0.0,0.0,0.0
OrientationDeg,1730920419190,341327319156876,169.0,2.0,0.0
UncalMag,1730920419198,341327327382397,293.30856,-18.527866,-377.95447,292.4399,-10.820129,-326.40997
UncalAccel,1730920419200,341327329143230,-0.47779775,-0.21619241,10.031022,0.0,0.0,0.0
UncalGyro,1730920419197,341327326643230,0.0026683665,0.0380577,-0.023069127,0.00024146058,-0.00015943254,-0.0016218966
OrientationDeg,1730920419200,341327329143230,169.0,2.0,0.0
Pressure,1730920419205,341327334237970,1012.06274
UncalMag,1730920419208,341327337341199,293.46704,-18.72568,-378.0202,292.4399,-10.820129,-326.40997
UncalAccel,1730920419210,341327339129585,-0.52577627,-0.18275073,10.031022,0.0,0.0,0.0
UncalGyro,1730920419207,341327336629585,-0.0026579408,0.024741936,-0.025199719,0.00024146058,-0.00015943254,-0.0016218966
OrientationDeg,1730920419210,341327339129585,169.0,2.0,0.0
UncalMag,1730920419218,341327347301876,293.03366,-19.166979,-378.54886,292.4399,-10.820129,-326.40997
UncalAccel,1730920419220,341327349115939,-0.5689576,-0.19707751,10.064459,0.0,0.0,0.0
UncalGyro,1730920419217,341327346615939,-0.0015926671,0.0039693275,-0.023069257,0.00024146058,-0.00015943254,-0.0016218966
OrientationDeg,1730920419220,341327349115939,169.0,2.0,0.0
UncalMag,1730920419228,341327357261772,292.97476,-19.564787,-378.2582,292.4399,-10.820129,-326.40997
UncalAccel,1730920419230,341327359102345,-0.5353839,-0.23528835,10.107448,0.0,0.0,0.0
UncalGyro,1730920419227,341327356602345,-0.007451606,-0.0029548549,-0.025732482,0.00024146058,-0.00015943254,-0.0016218966
OrientationDeg,1730920419230,341327359102345,169.0,2.0,0.0
UncalMag,1730920419237,341327367222605,293.22055,-19.134905,-377.82883,292.4399,-10.820129,-326.40997
UncalGyro,1730920419237,341327366588699,-0.019169495,0.0055672843,-0.018808333,0.00024146058,-0.00015943254,-0.0016218966
UncalAccel,1730920419240,341327369088699,-0.5593764,-0.19706996,10.083566,0.0,0.0,0.0
OrientationDeg,1730920419240,341327369088699,169.0,2.0,0.0
Pressure,1730920419245,341327374236199,1012.0702
UncalMag,1730920419248,341327377182918,293.127,-19.14836,-378.11124,292.4399,-10.820129,-326.40997
UncalAccel,1730920419250,341327379075053,-0.5785718,-0.19706622,10.064461,0.0,0.0,0.0
UncalGyro,1730920419247,341327376575053,-0.022365276,-0.0066832155,-0.01294945,0.00024146058,-0.00015943254,-0.0016218966
OrientationDeg,1730920419250,341327379075053,169.0,2.0,1.0
UncalMag,1730920419258,341327387146043,293.25052,-18.951492,-378.4397,292.4399,-10.820129,-326.40997
UncalAccel,1730920419260,341327389061407,-0.5258093,-0.22094661,10.121779,0.0,0.0,0.0
OrientationDeg,1730920419260,341327389061407,169.0,2.0,1.0
UncalGyro,1730920419257,341327386561407,-0.010647366,-0.028521087,-0.0054926705,0.00024146058,-0.00015943254,-0.0016218966
UncalMag,1730920419268,341327397109168,293.25052,-18.951492,-378.4397,292.4399,-10.820129,-326.40997
UncalAccel,1730920419270,341327399047553,-0.51622146,-0.22094285,10.078792,0.0,0.0,0.0
UncalGyro,1730920419267,341327396547553,-0.007984197,-0.03491264,-0.00016641803,0.00024146058,-0.00015943254,-0.0016218966
OrientationDeg,1730920419270,341327399047553,169.0,2.0,1.0
UncalMag,1730920419277,341327407070991,293.31476,-19.142105,-378.1671,292.4399,-10.820129,-326.40997
UncalAccel,1730920419280,341327409033647,-0.46345893,-0.23049273,10.011922,0.0,0.0,0.0
UncalGyro,1730920419277,341327406533647,-0.0063862912,-0.043434717,0.0030293071,0.00024146058,-0.00015943254,-0.0016218966
OrientationDeg,1730920419280,341327409033647,169.0,2.0,1.0
Pressure,1730920419285,341327414235418,1012.0685
UncalMag,1730920419288,341327417034012,293.12668,-19.138033,-377.80087,292.4399,-10.820129,-326.40997
UncalGyro,1730920419287,341327416519741,-0.0074515445,-0.038641,0.006757664,0.00024146058,-0.00015943254,-0.0016218966
UncalAccel,1730920419290,341327419019741,-0.43468234,-0.21615848,10.016699,0.0,0.0,0.0
OrientationDeg,1730920419290,341327419019741,169.0,2.0,1.0
UncalMag,1730920419296,341327426996199,293.0619,-18.931927,-377.6079,292.4399,-10.820129,-326.40997
UncalGyro,1730920419297,341327426505887,-0.013843115,-0.02372728,0.008355495,0.00024146058,-0.00015943254,-0.0016218966
UncalAccel,1730920419299,341327429005887,-0.44908053,-0.1874937,9.98804,0.0,0.0,0.0
OrientationDeg,1730920419299,341327429005887,169.0,2.0,1.0
UncalMag,1730920419307,341327436954897,293.373,-18.72364,-377.83707,292.4399,-10.820129,-326.40997
UncalAccel,1730920419309,341327438991980,-0.4346955,-0.20182048,9.973712,0.0,0.0,0.0
UncalGyro,1730920419307,341327436491980,-0.022365212,-0.01254198,0.007822797,0.00024146058,-0.00015943254,-0.0016218966
OrientationDeg,1730920419309,341327438991980,169.0,2.0,1.0
UncalMag,1730920419316,341327446916980,293.25,-18.936,-377.97418,292.4399,-10.820129,-326.40997
UncalAccel,1730920419319,341327448978074,-0.40112177,-0.21137035,10.011925,0.0,0.0,0.0
OrientationDeg,1730920419319,341327448978074,169.0,2.0,1.0
UncalGyro,1730920419317,341327446478074,-0.02129994,0.002904372,0.01048589,0.00024146058,-0.00015943254,-0.0016218966
Pressure,1730920419325,341327454238178,1012.0792
UncalMag,1730920419327,341327456878282,292.874,-18.933018,-377.39685,292.4399,-10.820129,-326.40997
UncalAccel,1730920419329,341327458964220,-0.40112835,-0.24480441,10.016701,0.0,0.0,0.0
OrientationDeg,1730920419329,341327458964220,169.0,2.0,1.0
UncalGyro,1730920419326,341327456464220,-0.016506243,0.02900336,0.01208372,0.00024146058,-0.00015943254,-0.0016218966
UncalMag,1730920419337,341327466839116,292.84473,-19.137087,-377.4067,292.4399,-10.820129,-326.40997
UncalAccel,1730920419339,341327468950314,-0.43951252,-0.21613963,9.988043,0.0,0.0,0.0
UncalGyro,1730920419337,341327466450314,-0.004788334,0.03486234,0.014214182,0.00024146058,-0.00015943254,-0.0016218966
OrientationDeg,1730920419339,341327468950314,169.0,2.0,1.0
UncalMag,1730920419347,341327476801824,293.13205,-19.726452,-377.2377,292.4399,-10.820129,-326.40997
UncalAccel,1730920419349,341327478936407,-0.48749104,-0.18269803,10.016703,0.0,0.0,0.0
UncalGyro,1730920419347,341327476436407,0.005864311,0.022611842,0.015279381,0.00024146058,-0.00015943254,-0.0016218966
OrientationDeg,1730920419349,341327478936407,169.0,2.0,1.0
UncalMag,1730920419357,341327486764324,293.13257,-19.741943,-377.70325,292.4399,-10.820129,-326.40997
UncalAccel,1730920419359,341327488922553,-0.53546965,-0.18747112,10.08835,0.0,0.0,0.0
UncalGyro,1730920419357,341327486422553,0.0053316895,0.009296076,0.013148788,0.00024146058,-0.00015943254,-0.0016218966
OrientationDeg,1730920419359,341327488922553,169.0,2.0,1.0
Pressure,1730920419365,341327494236095,1012.0849
UncalMag,1730920419367,341327496727553,292.97443,-19.554459,-377.94788,292.4399,-10.820129,-326.40997
UncalAccel,1730920419369,341327498908647,-0.5834481,-0.18746732,10.083574,0.0,0.0,0.0
UncalGyro,1730920419367,341327496408647,-0.0026577765,0.0013066309,0.006757142,0.00024146058,-0.00015943254,-0.0016218966
OrientationDeg,1730920419368,341327498908647,169.0,2.0,1.0
UncalMag,1730920419377,341327506687918,292.8802,-19.547256,-377.60953,292.4399,-10.820129,-326.40997
UncalAccel,1730920419379,341327508894741,-0.5498744,-0.16835622,10.078799,0.0,0.0,0.0
OrientationDeg,1730920419379,341327508894741,169.0,2.0,1.0
UncalGyro,1730920419377,341327506394741,-0.014908296,-0.006682815,0.003028654,0.00024146058,-0.00015943254,-0.0016218966
UncalMag,1730920419387,341327516647762,292.87363,-18.92269,-377.0865,292.4399,-10.820129,-326.40997
UncalGyro,1730920419387,341327516380835,-0.0218325,-0.0061501525,0.0019633253,0.00024146058,-0.00015943254,-0.0016218966
UncalAccel,1730920419389,341327518880835,-0.525895,-0.1970135,10.093129,0.0,0.0,0.0
OrientationDeg,1730920419389,341327518880835,169.0,2.0,1.0
UncalMag,1730920419397,341327526606772,293.46652,-18.710186,-377.55466,292.4399,-10.820129,-326.40997
UncalAccel,1730920419399,341327528866980,-0.48272684,-0.2304475,10.097906,0.0,0.0,0.0
UncalGyro,1730920419397,341327526366980,-0.018636698,-0.012541702,0.0024958919,0.00024146058,-0.00015943254,-0.0016218966
OrientationDeg,1730920419399,341327528866980,169.0,2.0,1.0
Pressure,1730920419405,341327534238230,1012.047
UncalMag,1730920419407,341327536566251,293.37973,-19.353374,-378.51532,292.4399,-10.820129,-326.40997
UncalAccel,1730920419409,341327538853074,-0.45395023,-0.21611331,10.107459,0.0,0.0,0.0
UncalGyro,1730920419407,341327536353074,-0.013843003,-0.0077479854,0.008354776,0.00024146058,-0.00015943254,-0.0016218966
OrientationDeg,1730920419409,341327538853074,169.0,2.0,1.0
UncalMag,1730920419417,341327546523126,293.04022,-19.79155,-379.07193,292.4399,-10.820129,-326.40997
UncalAccel,1730920419419,341327548839168,-0.45395687,-0.20655583,10.102684,0.0,0.0,0.0
UncalGyro,1730920419417,341327546339168,-0.011712465,-0.004552164,0.009419974,0.00024146058,-0.00015943254,-0.0016218966
OrientationDeg,1730920419419,341327548839168,169.0,2.0,1.0
UncalMag,1730920419427,341327556480157,292.9689,-18.960875,-378.35587,292.4399,-10.820129,-326.40997
UncalAccel,1730920419429,341327558825314,-0.44436902,-0.20177525,10.097908,0.0,0.0,0.0
UncalGyro,1730920419427,341327556325314,-0.010647192,-0.007215292,0.008354645,0.00024146058,-0.00015943254,-0.0016218966
OrientationDeg,1730920419429,341327558825314,169.0,2.0,1.0
UncalMag,1730920419437,341327566439064,292.80972,-18.742405,-377.66937,292.4399,-10.820129,-326.40997
UncalGyro,1730920419437,341327566311407,-0.00745139,-0.013606843,0.0035608942,0.00024146058,-0.00015943254,-0.0016218966
UncalAccel,1730920419439,341327568811407,-0.45876727,-0.16833363,10.050144,0.0,0.0,0.0
OrientationDeg,1730920419439,341327568811407,169.0,2.0,1.0
Pressure,1730920419445,341327574237293,1012.0253
UncalMag,1730920419447,341327576402710,292.78027,-18.941307,-377.52408,292.4399,-10.820129,-326.40997
UncalAccel,1730920419449,341327578797501,-0.45877382,-0.14922254,10.026263,0.0,0.0,0.0
UncalGyro,1730920419447,341327576297501,-0.002657694,-0.023726815,-0.0028307524,0.00024146058,-0.00015943254,-0.0016218966
OrientationDeg,1730920419449,341327578797501,169.0,2.0,1.0
UncalMag,1730920419457,341327586365418,292.87433,-18.943344,-377.70718,292.4399,-10.820129,-326.40997
OrientationDeg,1730920419459,341327588783647,169.0,2.0,1.0
UncalAccel,1730920419459,341327588783647,-0.42040288,-0.18743344,10.054922,0.0,0.0,0.0
UncalGyro,1730920419457,341327586283647,-0.005853474,-0.029053103,-0.011885557,0.00024146058,-0.00015943254,-0.0016218966
UncalMag,1730920419467,341327596329168,293.1854,-18.735062,-377.93637,292.4399,-10.820129,-326.40997
UncalAccel,1730920419469,341327598769741,-0.41561228,-0.22086756,10.054923,0.0,0.0,0.0
UncalGyro,1730920419467,341327596269741,-0.01703873,-0.026389912,-0.009222465,0.00024146058,-0.00015943254,-0.0016218966
OrientationDeg,1730920419469,341327598769741,169.0,2.0,1.0
UncalMag,1730920419477,341327606291616,293.3082,-18.517536,-377.64407,292.4399,-10.820129,-326.40997
UncalAccel,1730920419479,341327608755835,-0.36764693,-0.2256406,10.074029,0.0,0.0,0.0
UncalGyro,1730920419477,341327606255835,-0.026626095,-0.008280402,-0.010287793,0.00024146058,-0.00015943254,-0.0016218966
OrientationDeg,1730920419479,341327608755835,169.0,2.0,1.0
Pressure,1730920419485,341327614235730,1011.99255
UncalMag,1730920419487,341327616254689,292.91016,-19.363846,-378.2204,292.4399,-10.820129,-326.40997
UncalGyro,1730920419487,341327616241980,-0.01650608,0.01036174,-0.0060268044,0.00024146058,-0.00015943254,-0.0016218966
UncalAccel,1730920419489,341327618741980,-0.33407313,-0.25907466,10.011935,0.0,0.0,0.0
OrientationDeg,1730920419489,341327618741980,169.0,2.0,1.0
UncalMag,1730920419497,341327626217605,292.75827,-19.790602,-378.67773,292.4399,-10.820129,-326.40997
UncalGyro,1730920419497,341327626228074,-0.0031902746,0.014622826,-0.002298447,0.00024146058,-0.00015943254,-0.0016218966
UncalAccel,1730920419499,341327628728074,-0.35326856,-0.27340144,9.988053,0.0,0.0,0.0
OrientationDeg,1730920419498,341327628728074,169.0,2.0,1.0
UncalMag,1730920419507,341327636182241,293.2214,-19.160725,-378.60474,292.4399,-10.820129,-326.40997
UncalAccel,1730920419508,341327638714168,-0.40124705,-0.2447366,10.078808,0.0,0.0,0.0
UncalGyro,1730920419507,341327636214168,0.007995002,0.017818648,0.0014299098,0.00024146058,-0.00015943254,-0.0016218966
OrientationDeg,1730920419508,341327638714168,169.0,2.0,1.0
UncalMag,1730920419517,341327646145730,293.0042,-19.365883,-378.40353,292.4399,-10.820129,-326.40997
UncalAccel,1730920419519,341327648700262,-0.4060508,-0.26861703,10.069256,0.0,0.0,0.0
UncalGyro,1730920419517,341327646200262,0.0074623814,0.017286047,0.0014298446,0.00024146058,-0.00015943254,-0.0016218966
OrientationDeg,1730920419519,341327648700262,169.0,2.0,1.0
Pressure,1730920419525,341327654238282,1012.0303
UncalMag,1730920419527,341327656111043,292.81595,-19.356646,-377.8821,292.4399,-10.820129,-326.40997
UncalAccel,1730920419529,341327658686407,-0.36288267,-0.31160474,10.021491,0.0,0.0,0.0
OrientationDeg,1730920419529,341327658686407,169.0,2.0,1.0
UncalGyro,1730920419527,341327656186407,-0.007451298,0.012492391,-0.0007007476,0.00024146058,-0.00015943254,-0.0016218966
UncalMag,1730920419537,341327666073282,292.9689,-18.960875,-378.35587,292.4399,-10.820129,-326.40997
UncalAccel,1730920419539,341327668672501,-0.3772808,-0.340262,10.026269,0.0,0.0,0.0
UncalGyro,1730920419537,341327666172501,-0.018636554,0.0029050505,-0.00016818126,0.00024146058,-0.00015943254,-0.0016218966
OrientationDeg,1730920419539,341327668672501,169.0,2.0,1.0
UncalMag,1730920419547,341327676035418,292.89838,-18.156021,-378.4157,292.4399,-10.820129,-326.40997
UncalGyro,1730920419547,341327676158595,-0.019169178,0.00024192245,0.00089701684,0.00024146058,-0.00015943254,-0.0016218966
UncalAccel,1730920419549,341327678658595,-0.3580987,-0.34981194,9.992834,0.0,0.0,0.0
OrientationDeg,1730920419549,341327678658595,169.0,2.0,1.0
UncalMag,1730920419556,341327685993543,292.58694,-18.353977,-377.87616,292.4399,-10.820129,-326.40997
UncalAccel,1730920419559,341327688644741,-0.34371367,-0.3545849,9.945069,0.0,0.0,0.0
UncalGyro,1730920419557,341327686144741,-0.006918635,0.0039703753,0.0051580057,0.00024146058,-0.00015943254,-0.0016218966
OrientationDeg,1730920419559,341327688644741,169.0,2.0,1.0
Pressure,1730920419565,341327694238335,1012.05634
UncalMag,1730920419566,341327695955574,293.033,-19.146324,-377.92816,292.4399,-10.820129,-326.40997
UncalAccel,1730920419569,341327698630835,-0.36290905,-0.33069703,9.916411,0.0,0.0,0.0
UncalGyro,1730920419567,341327696130835,0.0032013783,0.006100933,0.0051579406,0.00024146058,-0.00015943254,-0.0016218966
OrientationDeg,1730920419569,341327698630835,169.0,2.0,1.0
UncalMag,1730920419576,341327705918647,293.28445,-19.31519,-377.24594,292.4399,-10.820129,-326.40997
UncalAccel,1730920419579,341327708616928,-0.4108876,-0.27814814,9.921189,0.0,0.0,0.0
UncalGyro,1730920419577,341327706116928,0.0037340205,0.009829387,0.0040926114,0.00024146058,-0.00015943254,-0.0016218966
OrientationDeg,1730920419579,341327708616928,169.0,2.0,1.0
UncalMag,1730920419586,341327715883387,292.65747,-19.158833,-377.81638,292.4399,-10.820129,-326.40997
UncalGyro,1730920419587,341327716103074,-0.0063859727,0.013025208,-0.0012337712,0.00024146058,-0.00015943254,-0.0016218966
UncalAccel,1730920419589,341327718603074,-0.44927174,-0.23037596,9.916412,0.0,0.0,0.0
OrientationDeg,1730920419589,341327718603074,169.0,2.0,1.0
UncalMag,1730920419595,341327725844949,292.65155,-18.554918,-377.91397,292.4399,-10.820129,-326.40997
UncalAccel,1730920419599,341327728589168,-0.46846712,-0.19215757,9.945072,0.0,0.0,0.0
UncalGyro,1730920419597,341327726089168,-0.02343018,-0.00082318694,-0.0033643637,0.00024146058,-0.00015943254,-0.0016218966
OrientationDeg,1730920419599,341327728589168,169.0,2.0,1.0
Pressure,1730920419605,341327734238022,1012.0167
UncalMag,1730920419606,341327735806668,293.1859,-18.750553,-378.4019,292.4399,-10.820129,-326.40997
UncalAccel,1730920419609,341327738575262,-0.43969056,-0.20648427,9.978508,0.0,0.0,0.0
UncalGyro,1730920419607,341327736075262,-0.046333335,-0.0040189466,-0.011353905,0.00024146058,-0.00015943254,-0.0016218966
OrientationDeg,1730920419608,341327738575262,169.0,2.0,1.0
UncalMag,1730920419615,341327745764428,293.1871,-18.786701,-379.4882,292.4399,-10.820129,-326.40997
UncalAccel,1730920419619,341327748561407,-0.39172515,-0.19692686,9.921192,0.0,0.0,0.0
UncalGyro,1730920419617,341327746061407,-0.052724905,-0.0050841793,-0.0134844985,0.00024146058,-0.00015943254,-0.0016218966
OrientationDeg,1730920419619,341327748561407,169.0,2.0,1.0
UncalMag,1730920419626,341327755721668,293.03366,-19.166979,-378.54886,292.4399,-10.820129,-326.40997
UncalGyro,1730920419627,341327756047501,-0.046865948,-0.0056167804,-0.008158246,0.00024146058,-0.00015943254,-0.0016218966
UncalAccel,1730920419629,341327758547501,-0.40132618,-0.1969231,9.945074,0.0,0.0,0.0
OrientationDeg,1730920419629,341327758547501,169.0,2.0,1.0
UncalMag,1730920419636,341327765683647,292.84525,-19.152578,-377.87225,292.4399,-10.820129,-326.40997
UncalAccel,1730920419639,341327768533595,-0.35815802,-0.19214247,9.959404,0.0,0.0,0.0
OrientationDeg,1730920419638,341327768533595,169.0,2.0,1.0
UncalGyro,1730920419637,341327766033595,-0.037811197,-0.004551486,-0.0065604155,0.00024146058,-0.00015943254,-0.0016218966
Pressure,1730920419645,341327774237397,1012.0552
UncalMag,1730920419646,341327775646147,293.1213,-18.549612,-378.3641,292.4399,-10.820129,-326.40997
UncalAccel,1730920419649,341327778519689,-0.3629618,-0.14914724,10.011947,0.0,0.0,0.0
UncalGyro,1730920419647,341327776019689,-0.03568066,-0.0013556646,-0.0038973219,0.00024146058,-0.00015943254,-0.0016218966
OrientationDeg,1730920419649,341327778519689,169.0,2.0,1.0
UncalMag,1730920419655,341327785604897,293.21533,-18.55165,-378.5472,292.4399,-10.820129,-326.40997
UncalAccel,1730920419659,341327788505835,-0.37735996,-0.14436667,10.093146,0.0,0.0,0.0
UncalGyro,1730920419657,341327786005835,-0.04793118,0.0071664746,-0.0049626506,0.00024146058,-0.00015943254,-0.0016218966
OrientationDeg,1730920419658,341327788505835,169.0,2.0,1.0
UncalMag,1730920419666,341327795565939,293.1859,-18.750553,-378.4019,292.4399,-10.820129,-326.40997
UncalAccel,1730920419669,341327798491928,-0.41094697,-0.17780067,10.136135,0.0,0.0,0.0
UncalGyro,1730920419666,341327795991928,-0.059116438,0.023678089,-0.00602798,0.00024146058,-0.00015943254,-0.0016218966
OrientationDeg,1730920419669,341327798491928,169.0,2.0,1.0
UncalMag,1730920419676,341327805528595,293.15628,-18.94429,-378.10138,292.4399,-10.820129,-326.40997
UncalAccel,1730920419679,341327808478022,-0.44453388,-0.15868963,10.126584,0.0,0.0,0.0
UncalGyro,1730920419676,341327805978022,-0.056453265,0.03220023,-0.0012343591,0.00024146058,-0.00015943254,-0.0016218966
OrientationDeg,1730920419679,341327808478022,169.0,2.0,1.0
Pressure,1730920419685,341327814237605,1012.00995
UncalMag,1730920419686,341327815487605,292.90445,-18.765097,-378.47324,292.4399,-10.820129,-326.40997
UncalAccel,1730920419689,341327818464168,-0.48291805,-0.13480164,10.140913,0.0,0.0,0.0
UncalGyro,1730920419686,341327815964168,-0.03940904,0.024743415,-0.0022996878,0.00024146058,-0.00015943254,-0.0016218966
OrientationDeg,1730920419689,341327818464168,169.0,2.0,1.0
UncalMag,1730920419696,341327825445835,292.96906,-18.966038,-378.51105,292.4399,-10.820129,-326.40997
UncalAccel,1730920419699,341327828450262,-0.39657512,-0.14435157,10.169573,0.0,0.0,0.0
OrientationDeg,1730920419699,341327828450262,169.0,2.0,1.0
UncalGyro,1730920419696,341327825950262,-0.029821657,0.002905544,-0.00016922597,0.00024146058,-0.00015943254,-0.0016218966
UncalMag,1730920419706,341327835407032,293.2209,-19.145231,-378.1392,292.4399,-10.820129,-326.40997
UncalAccel,1730920419709,341327838436355,-0.3342182,-0.14434782,10.183903,0.0,0.0,0.0
UncalGyro,1730920419706,341327835936355,-0.032484807,-0.017334431,-0.00070192316,0.00024146058,-0.00015943254,-0.0016218966
OrientationDeg,1730920419709,341327838436355,169.0,2.0,1.0
UncalMag,1730920419716,341327845367918,293.25034,-18.946327,-378.28455,292.4399,-10.820129,-326.40997
UncalAccel,1730920419719,341327848422501,-0.30544162,-0.12523666,10.169574,0.0,0.0,0.0
UncalGyro,1730920419716,341327845922501,-0.03994164,-0.0290523,-0.0017672519,0.00024146058,-0.00015943254,-0.0016218966
OrientationDeg,1730920419719,341327848422501,169.0,2.0,1.0
Pressure,1730920419725,341327854238543,1012.0325
UncalMag,1730920419726,341327855326199,292.91068,-19.37934,-378.68597,292.4399,-10.820129,-326.40997
UncalAccel,1730920419729,341327858408595,-0.27186787,-0.10612563,10.126587,0.0,0.0,0.0
UncalGyro,1730920419726,341327855908595,-0.048996367,-0.038639642,-0.004963108,0.00024146058,-0.00015943254,-0.0016218966
OrientationDeg,1730920419729,341327858408595,169.0,2.0,1.0
UncalMag,1730920419736,341327865283491,293.2221,-19.181381,-379.22546,292.4399,-10.820129,-326.40997
UncalAccel,1730920419739,341327868394689,-0.2239025,-0.13955969,10.102705,0.0,0.0,0.0
UncalGyro,1730920419736,341327865894689,-0.051659517,-0.043433297,-0.004963173,0.00024146058,-0.00015943254,-0.0016218966
OrientationDeg,1730920419739,341327868394689,169.0,2.0,1.0
UncalMag,1730920419746,341327875245314,293.5039,-19.177164,-379.46448,292.4399,-10.820129,-326.40997
UncalAccel,1730920419749,341327878380835,-0.20971394,-0.17765833,10.131384,0.0,0.0,0.0
UncalGyro,1730920419746,341327875880835,-0.05325725,-0.03171491,-0.0033663157,0.00022743743,-0.00015724168,-0.0016205468
OrientationDeg,1730920419749,341327878380835,169.0,2.0,1.0
UncalMag,1730920419756,341327885204949,293.22192,-19.176218,-379.07028,292.4399,-10.820129,-326.40997
OrientationDeg,1730920419759,341327888366928,169.0,2.0,1.0
UncalAccel,1730920419759,341327888366928,-0.20972224,-0.1728768,10.169597,0.0,0.0,0.0
UncalGyro,1730920419756,341327885866928,-0.050593928,-0.017333353,-0.012954738,0.00022743743,-0.00015724168,-0.0016205468
Pressure,1730920419765,341327894234949,1012.0055
UncalMag,1730920419766,341327895165626,292.93964,-19.164944,-378.36572,292.4399,-10.820129,-326.40997
OrientationDeg,1730920419769,341327898352866,169.0,2.0,1.0
UncalAccel,1730920419769,341327898352866,-0.28168845,-0.16331843,10.183927,0.0,0.0,0.0
UncalGyro,1730920419766,341327895852866,-0.045267597,-0.021061737,-0.017215874,0.00022743743,-0.00015724168,-0.0016205468
UncalMag,1730920419776,341327905127397,293.0328,-19.14116,-377.77295,292.4399,-10.820129,-326.40997
OrientationDeg,1730920419779,341327908338751,169.0,2.0,1.0
UncalAccel,1730920419779,341327908338751,-0.21453603,-0.09166122,10.160046,0.0,0.0,0.0
UncalGyro,1730920419776,341327905838751,-0.03195179,0.004504626,-0.010291743,0.00022743743,-0.00015724168,-0.0016205468
Status,1730920418000,29,0,1,3,1575420030,35.60,177.0,77.0,1,1,0,
Status,1730920418000,29,1,1,4,1575420030,23.10,324.0,59.0,1,1,0,
Status,1730920418000,29,2,1,7,1575420030,17.20,232.0,18.0,0,1,0,
Status,1730920418000,29,3,1,16,1575420030,29.30,118.0,39.0,1,1,0,
Status,1730920418000,29,4,1,26,1575420030,27.50,71.0,38.0,1,1,0,
Status,1730920418000,29,5,1,28,1575420030,18.40,49.0,4.0,0,1,0,
Status,1730920418000,29,6,1,31,1575420030,27.40,46.0,33.0,1,1,0,
Status,1730920418000,29,7,1,2,1575420030,0.00,201.0,7.0,0,1,0,
Status,1730920418000,29,8,1,6,1575420030,0.00,307.0,16.0,0,1,0,
Status,1730920418000,29,9,1,9,1575420030,0.00,296.0,33.0,0,1,0,
Status,1730920418000,29,10,3,6,1602000000,22.00,49.0,61.0,0,1,0,
Status,1730920418000,29,11,3,22,1602000000,14.20,272.0,15.0,0,1,0,
Status,1730920418000,29,12,3,9,1602000000,31.80,174.0,52.0,1,1,1,
Status,1730920418000,29,13,3,16,1602000000,38.20,53.0,56.0,1,1,1,
Status,1730920418000,29,14,3,15,1602000000,25.00,26.0,7.0,0,1,0,
Status,1730920418000,29,15,3,5,1602000000,21.00,106.0,11.0,1,1,0,
Status,1730920418000,29,16,3,7,1602000000,22.10,327.0,39.0,1,1,0,
Status,1730920418000,29,17,3,23,1602000000,0.00,319.0,11.0,0,1,0,
Status,1730920418000,29,18,3,21,1602000000,0.00,0.0,0.0,0,1,0,
Status,1730920418000,29,19,2,133,1575420030,35.60,0.0,0.0,0,0,0,
Status,1730920418000,29,20,6,7,1575420030,22.80,75.0,32.0,1,1,0,
Status,1730920418000,29,21,6,21,1575420030,23.10,170.0,16.0,1,1,0,
Status,1730920418000,29,22,6,26,1575420030,34.40,195.0,11.0,0,1,0,
Status,1730920418000,29,23,6,27,1575420030,36.70,115.0,41.0,1,1,0,
Status,1730920418000,29,24,6,29,1575420030,32.40,354.0,67.0,0,1,0,
Status,1730920418000,29,25,6,30,1575420030,23.50,54.0,25.0,1,1,0,
Status,1730920418000,29,26,6,10,1575420030,0.00,323.0,9.0,0,1,0,
Status,1730920418000,29,27,6,12,1575420030,0.00,303.0,22.0,0,1,0,
Status,1730920418000,29,28,6,19,1575420030,0.00,292.0,34.0,0,1,0,
UncalMag,1730920419786,341327915090678,293.6837,-18.505028,-377.75586,292.4399,-10.820129,-326.40997
UncalAccel,1730920419789,341327918324637,-0.20974712,-0.12031744,10.05974,0.0,0.0,0.0
UncalGyro,1730920419786,341327915824637,-0.012244401,0.022081513,-0.0033676126,0.00022743743,-0.00015724168,-0.0016205468
OrientationDeg,1730920419789,341327918324637,169.0,2.0,1.0
UncalMag,1730920419796,341327925054428,293.90695,-18.908945,-378.0146,292.4399,-10.820129,-326.40997
UncalAccel,1730920419799,341327928310522,-0.25772732,-0.11553585,9.935554,0.0,0.0,0.0
UncalGyro,1730920419795,341327925810522,0.015985096,0.01835313,0.00036072778,0.00022743743,-0.00015724168,-0.0016205468
OrientationDeg,1730920419799,341327928310522,169.0,2.0,1.0
Raw,1730920418435,475501203000000,,,-1414480135232802131,0.49455738067626953,109.16986502707005,177.26349103295217,17.14579368802613,8,6,0.0,207,80018369843814,35,22.0,61.72941589355469,1.0,16,0.0,0.0,1599750020,,,,0,,3,0.72,,,,,,,,
Raw,1730920418435,475501203000000,,,-1414480135232802131,0.49455738067626953,109.16986502707005,177.26349103295217,17.14579368802613,8,22,0.0,207,80018358850069,2727,14.2,488.34149169921875,26.03350067138672,16,0.0,0.0,1600312450,,,,0,,3,0.72,,,,,,,,
Raw,1730920418435,475501203000000,,,-1414480135232802131,0.49455738067626953,109.16986502707005,177.26349103295217,17.14579368802613,8,9,0.0,207,80018368703331,13,31.8,-478.3236999511719,0.23720000684261322,16,0.0,0.0,1600875010,,,,0,,3,0.72,,,,,,,,
Raw,1730920418435,475501203000000,,,-1414480135232802131,0.49455738067626953,109.16986502707005,177.26349103295217,17.14579368802613,8,16,0.0,207,80018369198514,6,38.2,326.8950500488281,0.23360000550746918,16,0.0,0.0,1601437440,,,,0,,3,0.72,,,,,,,,
Raw,1730920418435,475501203000000,,,-1414480135232802131,0.49455738067626953,109.16986502707005,177.26349103295217,17.14579368802613,8,15,0.0,207,80018356329595,24,25.0,817.52587890625,0.6057999730110168,16,0.0,0.0,1602000000,,,,0,,3,0.72,,,,,,,,
Raw,1730920418435,475501203000000,,,-1414480135232802131,0.49455738067626953,109.16986502707005,177.26349103295217,17.14579368802613,8,5,0.0,207,80018357642940,40,21.0,582.2294311523438,1.0720000267028809,16,0.0,0.0,1602562560,,,,0,,3,0.72,,,,,,,,
Raw,1730920418435,475501203000000,,,-1414480135232802131,0.49455738067626953,109.16986502707005,177.26349103295217,17.14579368802613,8,7,0.0,207,80018365769517,35,22.1,-422.91558837890625,0.9939999580383301,16,0.0,0.0,1604812540,,,,0,,3,0.72,,,,,,,,
Raw,1730920418435,475501203000000,,,-1414480135232802131,0.49455738067626953,109.16986502707005,177.26349103295217,17.14579368802613,8,3,0.0,15,328436368794426,9,35.6,222.36868286132812,0.03360000252723694,16,0.0,0.0,1575420030,,,,0,,1,-1.6,,,,,,,,
Raw,1730920418435,475501203000000,,,-1414480135232802131,0.49455738067626953,109.16986502707005,177.26349103295217,17.14579368802613,8,4,0.0,15,328436366670101,31,23.1,-145.63174438476562,0.7354999780654907,16,0.0,0.0,1575420030,,,,0,,1,-1.6,,,,,,,,
Raw,1730920418435,475501203000000,,,-1414480135232802131,0.49455738067626953,109.16986502707005,177.26349103295217,17.14579368802613,8,7,0.0,15,328436355653335,98,17.2,-467.68475341796875,4.189000129699707,16,0.0,0.0,1575420030,,,,0,,1,-1.6,,,,,,,,
Raw,1730920418435,475501203000000,,,-1414480135232802131,0.49455738067626953,109.16986502707005,177.26349103295217,17.14579368802613,8,16,0.0,15,328436363283523,16,29.3,-333.36053466796875,0.031200001016259193,16,0.0,0.0,1575420030,,,,0,,1,-1.6,,,,,,,,
Raw,1730920418435,475501203000000,,,-1414480135232802131,0.49455738067626953,109.16986502707005,177.26349103295217,17.14579368802613,8,26,0.0,15,328436362934946,19,27.5,200.22702026367188,0.49949997663497925,16,0.0,0.0,1575420030,,,,0,,1,-1.6,,,,,,,,
Raw,1730920418435,475501203000000,,,-1414480135232802131,0.49455738067626953,109.16986502707005,177.26349103295217,17.14579368802613,8,28,0.0,15,328436350990240,61,18.4,690.5376586914062,1.091499924659729,16,0.0,0.0,1575420030,,,,0,,1,-1.6,,,,,,,,
Raw,1730920418435,475501203000000,,,-1414480135232802131,0.49455738067626953,109.16986502707005,177.26349103295217,17.14579368802613,8,31,0.0,15,328436361181241,19,27.4,636.8045654296875,0.04280000180006027,16,0.0,0.0,1575420030,,,,0,,1,-1.6,,,,,,,,
Raw,1730920418435,475501203000000,,,-1414480135232802131,0.49455738067626953,109.16986502707005,177.26349103295217,17.14579368802613,8,7,0.0,7183,328436350085615,35,22.8,349.1508483886719,0.643500030040741,16,0.0,0.0,1575420030,,,,0,,6,-1.58,,,,,,,,
Raw,1730920418435,475501203000000,,,-1414480135232802131,0.49455738067626953,109.16986502707005,177.26349103295217,17.14579368802613,8,21,0.0,7183,328436345049091,31,23.1,-531.4521484375,0.6019999980926514,16,0.0,0.0,1575420030,,,,0,,6,-1.58,,,,,,,,
Raw,1730920418435,475501203000000,,,-1414480135232802131,0.49455738067626953,109.16986502707005,177.26349103295217,17.14579368802613,8,26,0.0,7183,328436343674264,10,34.4,626.0126953125,0.044600002467632294,16,0.0,0.0,1575420030,,,,0,,6,-1.58,,,,,,,,
Raw,1730920418435,475501203000000,,,-1414480135232802131,0.49455738067626953,109.16986502707005,177.26349103295217,17.14579368802613,8,27,0.0,7183,328436352124119,8,36.7,-262.1933288574219,0.04520000144839287,16,0.0,0.0,1575420030,,,,0,,6,-1.58,,,,,,,,
Raw,1730920418435,475501203000000,,,-1414480135232802131,0.49455738067626953,109.16986502707005,177.26349103295217,17.14579368802613,8,29,0.0,7183,328436357053306,12,32.4,15.029345512390137,0.049400001764297485,16,0.0,0.0,1575420030,,,,0,,6,-1.58,,,,,,,,
Raw,1730920418435,475501203000000,,,-1414480135232802131,0.49455738067626953,109.16986502707005,177.26349103295217,17.14579368802613,8,30,0.0,7183,328436347336808,31,23.5,222.1868896484375,0.6200000047683716,16,0.0,0.0,1575420030,,,,0,,6,-1.58,,,,,,,,
Pressure,1730920419804,341327934236772,1012.053
UncalMag,1730920419806,341327935015210,294.09348,-18.866543,-376.98422,292.4399,-10.820129,-326.40997
Fix,GPS,37.4267920400,-122.1769260200,4.17852783203125,0.0,6.432,,1730920419000,1.4717677,,341327914827635,12.0,,,,
Fix,FLP,37.4267904000,-122.1769257000,4.123134266744438,1.0723091,5.538,342.64258,1730920419785,1.4717677,45.0,341327914827635,11.05386,,,,
UncalAccel,1730920419809,341327938296407,-0.36807108,-0.07731651,9.973765,0.0,0.0,0.0
UncalGyro,1730920419806,341327935796407,0.028768271,0.030071067,-0.00017198594,0.00022743743,-0.00015724168,-0.0016205468
OrientationDeg,1730920419809,341327938296407,169.0,2.0,1.0
UncalMag,1730920419815,341327944975157,294.028,-18.639784,-376.17053,292.4399,-10.820129,-326.40997
UncalAccel,1730920419819,341327948282293,-0.30571586,-0.05342756,9.945107,0.0,0.0,0.0
UncalGyro,1730920419816,341327945782293,0.023974597,0.032201633,0.0051542493,0.00022743743,-0.00015724168,-0.0016205468
OrientationDeg,1730920419819,341327948282293,169.0,2.0,1.0
UncalMag,1730920419825,341327954937085,293.62326,-18.85636,-376.0686,292.4399,-10.820129,-326.40997
UncalAccel,1730920419829,341327958268178,-0.31531852,-0.08686067,9.892567,0.0,0.0,0.0
OrientationDeg,1730920419829,341327958268178,169.0,2.0,1.0
UncalGyro,1730920419826,341327955768178,0.02663777,0.020483773,0.008349958,0.00022743743,-0.00015724168,-0.0016205468
UncalMag,1730920419835,341327964897970,293.43015,-18.27419,-376.57587,292.4399,-10.820129,-326.40997
UncalGyro,1730920419835,341327965754116,0.017583042,0.0045048585,0.012078298,0.00022743743,-0.00015724168,-0.0016205468
UncalAccel,1730920419839,341327968254116,-0.38248754,-0.043864492,9.883015,0.0,0.0,0.0
OrientationDeg,1730920419839,341327968254116,169.0,2.0,1.0
Pressure,1730920419845,341327974235470,1012.03076
UncalMag,1730920419845,341327974860210,293.431,-18.300013,-377.35178,292.4399,-10.820129,-326.40997
UncalAccel,1730920419849,341327978240001,-0.4304678,0.018239096,9.949886,0.0,0.0,0.0
UncalGyro,1730920419846,341327975740001,-0.0085159,0.0013091068,0.016871903,0.00022743743,-0.00015724168,-0.0016205468
OrientationDeg,1730920419849,341327978240001,169.0,2.0,1.0
UncalMag,1730920419855,341327984819168,293.43686,-18.903925,-377.25415,292.4399,-10.820129,-326.40997
UncalAccel,1730920419859,341327988225887,-0.44966486,0.056458555,10.011982,0.0,0.0,0.0
UncalGyro,1730920419856,341327985725887,-0.03408221,0.03007126,0.022198137,0.00022743743,-0.00015724168,-0.0016205468
OrientationDeg,1730920419859,341327988225887,169.0,2.0,1.0
UncalMag,1730920419865,341327994767918,293.72372,-19.4778,-376.61963,292.4399,-10.820129,-326.40997
UncalAccel,1730920419869,341327998211772,-0.38730958,0.027802221,9.954664,0.0,0.0,0.0
UncalGyro,1730920419866,341327995711772,-0.035680097,0.039658673,0.03285069,0.00022743743,-0.00015724168,-0.0016205468
OrientationDeg,1730920419869,341327998211772,169.0,2.0,1.0
UncalMag,1730920419875,341328004716668,293.9707,-19.084068,-377.2765,292.4399,-10.820129,-326.40997
UncalAccel,1730920419879,341328008197657,-0.32015714,-0.03429186,9.930783,0.0,0.0,0.0
