# 
# Header Description:
# 
# Version: v3.1.0.3 Platform: 10 Manufacturer: Google Model: Pixel 3 XL GNSS Hardware Model Name: crosshatch;MPSS.AT.4.0.c2.17-00096-SDM845_GEN_PACK-1;
# 
# Raw,utcTimeMillis,TimeNanos,LeapSecond,TimeUncertaintyNanos,FullBiasNanos,BiasNanos,BiasUncertaintyNanos,DriftNanosPerSecond,DriftUncertaintyNanosPerSecond,HardwareClockDiscontinuityCount,Svid,TimeOffsetNanos,State,ReceivedSvTimeNanos,ReceivedSvTimeUncertaintyNanos,Cn0DbHz,PseudorangeRateMetersPerSecond,PseudorangeRateUncertaintyMetersPerSecond,AccumulatedDeltaRangeState,AccumulatedDeltaRangeMeters,AccumulatedDeltaRangeUncertaintyMeters,CarrierFrequencyHz,CarrierCycles,CarrierPhase,CarrierPhaseUncertainty,MultipathIndicator,SnrInDb,ConstellationType,AgcDb,BasebandCn0DbHz,FullInterSignalBiasNanos,FullInterSignalBiasUncertaintyNanos,SatelliteInterSignalBiasNanos,SatelliteInterSignalBiasUncertaintyNanos,CodeType,ChipsetElapsedRealtimeNanos,IsFullTracking
# 
# UncalAccel,utcTimeMillis,elapsedRealtimeNanos,UncalAccelXMps2,UncalAccelYMps2,UncalAccelZMps2,BiasXMps2,BiasYMps2,BiasZMps2
# 
# Accel,utcTimeMillis,elapsedRealtimeNanos,AccelXMps2,AccelYMps2,AccelZMps2
# 
# UncalGyro,utcTimeMillis,elapsedRealtimeNanos,UncalGyroXRadPerSec,UncalGyroYRadPerSec,UncalGyroZRadPerSec,DriftXRadPerSec,DriftYRadPerSec,DriftZRadPerSec
# 
# Gyro,utcTimeMillis,elapsedRealtimeNanos,GyroXRadPerSec,GyroYRadPerSec,GyroZRadPerSec
# 
# UncalMag,utcTimeMillis,elapsedRealtimeNanos,UncalMagXMicroT,UncalMagYMicroT,UncalMagZMicroT,BiasXMicroT,BiasYMicroT,BiasZMicroT
# 
# Mag,utcTimeMillis,elapsedRealtimeNanos,MagXMicroT,MagYMicroT,MagZMicroT
# 
# Pressure,utcTimeMillis,elapsedRealtimeNanos,PressureHpa
# 
# OrientationDeg,utcTimeMillis,elapsedRealtimeNanos,yawDeg,rollDeg,pitchDeg
# 
# Fix,Provider,LatitudeDegrees,LongitudeDegrees,AltitudeMeters,SpeedMps,AccuracyMeters,BearingDegrees,UnixTimeMillis,SpeedAccuracyMps,BearingAccuracyDegrees,elapsedRealtimeNanos,VerticalAccuracyMeters,MockLocation,NumberOfUsedSignals,VerticalSpeedAccuracyMps,SolutionType
# 
# Nav,Svid,Type,Status,MessageId,Sub-messageId,Data(Bytes)
# 
# Status,UnixTimeMillis,SignalCount,SignalIndex,ConstellationType,Svid,CarrierFrequencyHz,Cn0DbHz,AzimuthDegrees,ElevationDegrees,UsedInFix,HasAlmanacData,HasEphemerisData,BasebandCn0DbHz
# 
# Agc,utcTimeMillis,TimeNanos,LeapSecond,TimeUncertaintyNanos,FullBiasNanos,BiasNanos,BiasUncertaintyNanos,DriftNanosPerSecond,DriftUncertaintyNanosPerSecond,HardwareClockDiscontinuityCount,AgcDb,CarrierFrequencyHz,ConstellationType
# 
UncalAccel,1731891151451,504290821958735,1.0109885,0.5170892,9.895194,0.0,0.0,0.0
UncalMag,1731891151456,504290826438683,271.95297,-54.579643,-387.04688,273.9417,-25.969566,-344.5698
UncalGyro,1731891151454,504290824451339,0.01754957,0.03955813,-0.024460636,0.0005274733,-0.0003773569,-0.001677307
UncalAccel,1731891151461,504290831943943,0.8095006,0.5791913,9.914301,0.0,0.0,0.0
UncalGyro,1731891151464,504290834436600,0.002103257,0.0038718325,-0.027656484,0.0005274733,-0.0003773569,-0.001677307
UncalMag,1731891151465,504290836377433,271.73593,-54.789967,-387.00082,273.9417,-25.969566,-344.5698
UncalAccel,1731891151470,504290841929204,0.7279424,0.62696296,9.923854,0.0,0.0,0.0
UncalMag,1731891151475,504290846315870,272.23474,-54.575428,-387.28592,273.9417,-25.969566,-344.5698
UncalAccel,1731891151480,504290851914412,0.83347493,0.69384193,9.976397,0.0,0.0,0.0
UncalGyro,1731891151483,504290854407068,0.03086539,-0.039271288,-0.039374497,0.0005274733,-0.0003773569,-0.001677307
UncalMag,1731891151485,504290856253370,272.38788,-54.18482,-387.91483,273.9417,-25.969566,-344.5698
UncalAccel,1731891151490,504290861899672,0.9581963,0.70817566,9.9859495,0.0,0.0,0.0
Fix,FLP,37.4297394000,-122.1693737000,2.799999952316284,0.08378042,3.0,,1731891150523,0.10726762,,504289894901926,9.162836,,,,
Fix,NLP,37.4285942000,-122.1693635000,2.799999952316284,,109.29,,1731891151491,,,504290861801189,30.02127,,,,
UncalGyro,1731891151494,504290864392277,0.037789613,-0.032347046,-0.030319814,0.0005274733,-0.0003773569,-0.001677307
UncalMag,1731891151496,504290866192381,272.29327,-54.16729,-387.26617,273.9417,-25.969566,-344.5698
Pressure,1731891151498,504290869963735,1014.1026
UncalAccel,1731891151501,504290871884933,0.9773792,0.708179,9.909527,0.0,0.0,0.0
UncalMag,1731891151505,504290876130245,272.51605,-54.555717,-387.0594,273.9417,-25.969566,-344.5698
UncalGyro,1731891151503,504290874377537,0.030865408,-0.019563857,-0.026058817,0.0005274733,-0.0003773569,-0.001677307
Status,,32,0,1,2,1575420030,23.90,63.0,20.0,1,1,1,
Status,,32,1,1,7,1575420030,17.10,120.0,18.0,1,1,1,
Status,,32,2,1,13,1575420030,38.50,261.0,55.0,1,1,1,
Status,,32,3,1,14,1575420030,33.20,26.0,63.0,1,1,1,
Status,,32,4,1,15,1575420030,39.90,293.0,28.0,1,1,1,
Status,,32,5,1,17,1575420030,32.20,158.0,70.0,1,1,1,
Status,,32,6,1,19,1575420030,34.30,194.0,41.0,1,1,1,
Status,,32,7,1,21,1575420030,32.60,45.0,11.0,1,1,1,
Status,,32,8,1,22,1575420030,30.30,326.0,68.0,1,1,1,
Status,,32,9,1,30,1575420030,32.90,115.0,51.0,1,1,1,
Status,,32,10,1,24,1575420030,0.00,309.0,1.0,0,1,0,
Status,,32,11,3,14,1602000000,34.70,57.0,40.0,1,1,1,
Status,,32,12,3,6,1602000000,19.10,327.0,14.0,0,1,0,
Status,,32,13,3,16,1602000000,34.90,289.0,11.0,1,1,0,
Status,,32,14,3,15,1602000000,27.90,334.0,49.0,1,1,1,
Status,,32,15,3,5,1602000000,27.10,260.0,35.0,1,1,1,
Status,,32,16,3,24,1602000000,35.00,66.0,40.0,1,1,1,
Status,,32,17,3,23,1602000000,16.30,18.0,4.0,0,1,0,
Status,,32,18,3,17,1602000000,22.90,140.0,35.0,1,1,1,
Status,,32,19,3,4,1602000000,29.50,209.0,15.0,1,1,1,
Status,,32,20,3,18,1602000000,0.00,174.0,2.0,0,1,0,
Status,,32,21,2,133,1575420030,36.00,0.0,0.0,0,0,0,
Status,,32,22,2,135,1575420030,31.20,0.0,0.0,0,0,0,
Status,,32,23,6,7,1575420030,30.40,184.0,30.0,1,1,0,
Status,,32,24,6,15,1575420030,20.10,118.0,18.0,1,1,0,
Status,,32,25,6,19,1575420030,34.10,310.0,27.0,1,1,0,
Status,,32,26,6,21,1575420030,29.30,267.0,29.0,1,1,0,
Status,,32,27,6,27,1575420030,29.90,337.0,69.0,1,1,0,
Status,,32,28,6,29,1575420030,34.90,255.0,53.0,1,1,1,
Status,,32,29,6,30,1575420030,34.90,57.0,33.0,1,1,0,
Status,,32,30,6,34,1575420030,25.90,66.0,18.0,1,1,0,
Status,,32,31,6,13,1575420030,0.00,0.0,0.0,0,1,0,
UncalAccel,1731891151510,504290881870141,0.8814296,0.70340544,9.866539,0.0,0.0,0.0
UncalMag,1731891151515,504290886068943,272.5791,-54.710182,-385.70053,273.9417,-25.969566,-344.5698
UncalGyro,1731891151513,504290884362797,0.0037011972,-0.007845931,-0.018069398,0.0005274733,-0.0003773569,-0.001677307
UncalAccel,1731891151521,504290891855402,0.76629114,0.7272929,9.871316,0.0,0.0,0.0
UncalMag,1731891151525,504290896008683,272.64316,-54.89563,-385.27277,273.9417,-25.969566,-344.5698
UncalGyro,1731891151523,504290894348006,-0.02506091,-0.0083785355,-0.0042210296,0.0005274733,-0.0003773569,-0.001677307
Raw,1731891149439,692149007000000,,,-1415234218432443662,-0.3752117156982422,22.55280560348183,30.884263176302383,9.63196561383734,29,14,0.0,207,13949369732301,10,34.7,287.64422607421875,0.23560000956058502,16,0.0,0.0,1598062460,,,,0,,3,2.55,,,,,,,,
Raw,1731891149439,692149007000000,,,-1415234218432443662,-0.3752117156982422,22.55280560348183,30.884263176302383,9.63196561383734,29,6,0.0,207,13949361921386,53,19.1,-388.1044921875,1.1980000734329224,16,0.0,0.0,1599750020,,,,0,,3,2.55,,,,,,,,
Raw,1731891149439,692149007000000,,,-1415234218432443662,-0.3752117156982422,22.55280560348183,30.884263176302383,9.63196561383734,29,16,0.0,207,13949361241815,10,34.9,-489.9287109375,0.22360001504421234,16,0.0,0.0,1601437440,,,,0,,3,2.55,,,,,,,,
Raw,1731891149439,692149007000000,,,-1415234218432443662,-0.3752117156982422,22.55280560348183,30.884263176302383,9.63196561383734,29,15,0.0,207,13949371844908,19,27.9,-185.31881713867188,0.25780001282691956,16,0.0,0.0,1602000000,,,,0,,3,2.55,,,,,,,,
Raw,1731891149439,692149007000000,,,-1415234218432443662,-0.3752117156982422,22.55280560348183,30.884263176302383,9.63196561383734,29,5,0.0,207,13949368744972,19,27.1,379.744140625,0.7384999990463257,16,0.0,0.0,1602562560,,,,0,,3,2.55,,,,,,,,
Raw,1731891149439,692149007000000,,,-1415234218432443662,-0.3752117156982422,22.55280560348183,30.884263176302383,9.63196561383734,29,24,0.0,207,13949369692924,9,35.0,78.2763900756836,0.23510000109672546,16,0.0,0.0,1603124990,,,,0,,3,2.55,,,,,,,,
Raw,1731891149439,692149007000000,,,-1415234218432443662,-0.3752117156982422,22.55280560348183,30.884263176302383,9.63196561383734,29,23,0.0,207,13949358481314,361,16.3,678.9921264648438,11.983500480651855,16,0.0,0.0,1603687550,,,,0,,3,2.55,,,,,,,,
Raw,1731891149439,692149007000000,,,-1415234218432443662,-0.3752117156982422,22.55280560348183,30.884263176302383,9.63196561383734,29,17,0.0,207,13949368764734,35,22.9,-635.455322265625,0.9984999895095825,16,0.0,0.0,1604249980,,,,0,,3,2.55,,,,,,,,
Raw,1731891149439,692149007000000,,,-1415234218432443662,-0.3752117156982422,22.55280560348183,30.884263176302383,9.63196561383734,29,4,0.0,207,13949362936006,16,29.5,782.322265625,0.659500002861023,16,0.0,0.0,1605374980,,,,0,,3,2.55,,,,,,,,
Raw,1731891149439,692149007000000,,,-1415234218432443662,-0.3752117156982422,22.55280560348183,30.884263176302383,9.63196561383734,29,2,0.0,15,89567359717913,31,23.9,102.4446029663086,0.6649999618530273,16,0.0,0.0,1575420030,,,,0,,1,0.32,,,,,,,,
Raw,1731891149439,692149007000000,,,-1415234218432443662,-0.3752117156982422,22.55280560348183,30.884263176302383,9.63196561383734,29,7,0.0,15,89567360872128,70,17.1,541.7565307617188,1.1664999723434448,16,0.0,0.0,1575420030,,,,0,,1,0.32,,,,,,,,
Raw,1731891149439,692149007000000,,,-1415234218432443662,-0.3752117156982422,22.55280560348183,30.884263176302383,9.63196561383734,29,13,0.0,15,89567369988834,6,38.5,99.41315460205078,0.03360000252723694,16,0.0,0.0,1575420030,,,,0,,1,0.32,,,,,,,,
Raw,1731891149439,692149007000000,,,-1415234218432443662,-0.3752117156982422,22.55280560348183,30.884263176302383,9.63196561383734,29,14,0.0,15,89567370841809,11,33.2,167.3411407470703,0.03790000081062317,16,0.0,0.0,1575420030,,,,0,,1,0.32,,,,,,,,
Raw,1731891149439,692149007000000,,,-1415234218432443662,-0.3752117156982422,22.55280560348183,30.884263176302383,9.63196561383734,29,15,0.0,15,89567364419245,6,39.9,-112.85261535644531,0.025600001215934753,16,0.0,0.0,1575420030,,,,0,,1,0.32,,,,,,,,
Raw,1731891149439,692149007000000,,,-1415234218432443662,-0.3752117156982422,22.55280560348183,30.884263176302383,9.63196561383734,29,17,0.0,15,89567371554824,12,32.2,-151.21066284179688,0.040400002151727676,16,0.0,0.0,1575420030,,,,0,,1,0.32,,,,,,,,
Raw,1731891149439,692149007000000,,,-1415234218432443662,-0.3752117156982422,22.55280560348183,30.884263176302383,9.63196561383734,29,19,0.0,15,89567366272774,10,34.3,-565.36669921875,0.03110000118613243,16,0.0,0.0,1575420030,,,,0,,1,0.32,,,,,,,,
Raw,1731891149439,692149007000000,,,-1415234218432443662,-0.3752117156982422,22.55280560348183,30.884263176302383,9.63196561383734,29,21,0.0,15,89567357562365,12,32.6,334.21392822265625,0.049400001764297485,16,0.0,0.0,1575420030,,,,0,,1,0.32,,,,,,,,
Raw,1731891149439,692149007000000,,,-1415234218432443662,-0.3752117156982422,22.55280560348183,30.884263176302383,9.63196561383734,29,22,0.0,15,89567370124336,14,30.3,30.88855743408203,0.040800001472234726,16,0.0,0.0,1575420030,,,,0,,1,0.32,,,,,,,,
Raw,1731891149439,692149007000000,,,-1415234218432443662,-0.3752117156982422,22.55280560348183,30.884263176302383,9.63196561383734,29,30,0.0,15,89567368538710,12,32.9,343.1401672363281,0.03590000048279762,16,0.0,0.0,1575420030,,,,0,,1,0.32,,,,,,,,
Raw,1731891149439,692149007000000,,,-1415234218432443662,-0.3752117156982422,22.55280560348183,30.884263176302383,9.63196561383734,29,7,0.0,7183,89567353087208,14,30.4,555.791748046875,0.05130000039935112,16,0.0,0.0,1575420030,,,,0,,6,0.36,,,,,,,,
Raw,1731891149439,692149007000000,,,-1415234218432443662,-0.3752117156982422,22.55280560348183,30.884263176302383,9.63196561383734,29,15,0.0,7183,89567349765954,46,20.1,-468.4364318847656,0.7519999742507935,16,0.0,0.0,1575420030,,,,0,,6,0.36,,,,,,,,
Raw,1731891149439,692149007000000,,,-1415234218432443662,-0.3752117156982422,22.55280560348183,30.884263176302383,9.63196561383734,29,19,0.0,7183,89567353397894,10,34.1,-304.6369934082031,0.047600001096725464,16,0.0,0.0,1575420030,,,,0,,6,0.36,,,,,,,,
Raw,1731891149439,692149007000000,,,-1415234218432443662,-0.3752117156982422,22.55280560348183,30.884263176302383,9.63196561383734,29,21,0.0,7183,89567352508817,16,29.3,-311.22125244140625,0.050700001418590546,16,0.0,0.0,1575420030,,,,0,,6,0.36,,,,,,,,
Raw,1731891149439,692149007000000,,,-1415234218432443662,-0.3752117156982422,22.55280560348183,30.884263176302383,9.63196561383734,29,27,0.0,7183,89567360416002,16,29.9,29.596874237060547,0.050700001418590546,16,0.0,0.0,1575420030,,,,0,,6,0.36,,,,,,,,
Raw,1731891149439,692149007000000,,,-1415234218432443662,-0.3752117156982422,22.55280560348183,30.884263176302383,9.63196561383734,29,29,0.0,7183,89567358631953,10,34.9,138.01150512695312,0.04910000041127205,16,0.0,0.0,1575420030,,,,0,,6,0.36,,,,,,,,
Raw,1731891149439,692149007000000,,,-1415234218432443662,-0.3752117156982422,22.55280560348183,30.884263176302383,9.63196561383734,29,30,0.0,7183,89567353237730,10,34.9,352.9729309082031,0.047600001096725464,16,0.0,0.0,1575420030,,,,0,,6,0.36,,,,,,,,
Raw,1731891149439,692149007000000,,,-1415234218432443662,-0.3752117156982422,22.55280560348183,30.884263176302383,9.63196561383734,29,34,0.0,7183,89567349460434,24,25.9,-119.26586151123047,0.4072999954223633,16,0.0,0.0,1575420030,,,,0,,6,0.36,,,,,,,,
Fix,GPS,37.4297395800,-122.1693704800,-9.80145263671875,0.0,3.216,,1731891150000,0.086023256,,504290883027233,3.0,,,,
Fix,FLP,37.4297395000,-122.1693734000,2.799999952316284,0.085572734,3.0,,1731891151512,0.11055025,,504290883027233,9.165376,,,,
UncalAccel,1731891151530,504290901840662,0.7327049,0.73207307,9.871317,0.0,0.0,0.0
UncalMag,1731891151534,504290905946808,272.33264,-55.119404,-385.5092,273.9417,-25.969566,-344.5698
UncalGyro,1731891151533,504290904333266,-0.034648273,-0.0105090365,0.000572599,0.0005274733,-0.0003773569,-0.001677307
Pressure,1731891151538,504290909951495,1014.01587
UncalAccel,1731891151540,504290911825870,0.7422936,0.7320764,9.952517,0.0,0.0,0.0
OrientationDeg,1731891151541,504290911825870,184.0,-4.0,-4.0
UncalMag,1731891151544,504290915883735,272.3619,-54.915337,-385.49933,273.9417,-25.969566,-344.5698
UncalGyro,1731891151543,504290914318527,-0.024528258,-0.021161644,-0.0026232488,0.0005274733,-0.0003773569,-0.001677307
UncalAccel,1731891151550,504290921811131,0.79505694,0.7273028,9.985953,0.0,0.0,0.0
OrientationDeg,1731891151550,504290921811131,184.0,-4.0,-4.0
UncalMag,1731891151554,504290925821652,272.14575,-55.15148,-386.2292,273.9417,-25.969566,-344.5698
UncalGyro,1731891151553,504290924303735,-0.01227772,-0.023292143,-0.005819096,0.0005274733,-0.0003773569,-0.001677307
UncalAccel,1731891151560,504290931796391,0.89579225,0.703422,10.00506,0.0,0.0,0.0
OrientationDeg,1731891151561,504290931796391,184.0,-4.0,-4.0
UncalGyro,1731891151563,504290934288995,-0.007484025,-0.011574218,-0.0063517857,0.0005274733,-0.0003773569,-0.001677307
UncalMag,1731891151564,504290935761860,272.36276,-54.94116,-386.27524,273.9417,-25.969566,-344.5698
UncalAccel,1731891151570,504290941781600,0.9101782,0.6843179,10.019389,0.0,0.0,0.0
OrientationDeg,1731891151570,504290941781600,184.0,-4.0,-4.0
UncalMag,1731891151574,504290945697797,272.88965,-54.486404,-385.46417,273.9417,-25.969566,-344.5698
UncalGyro,1731891151573,504290944274256,-0.008549279,0.004937393,-0.005819211,0.0005274733,-0.0003773569,-0.001677307
Pressure,1731891151578,504290949948631,1014.01917
UncalAccel,1731891151580,504290951766860,0.88618636,0.63655293,9.966849,0.0,0.0,0.0
OrientationDeg,1731891151581,504290951766860,184.0,-4.0,-4.0
UncalGyro,1731891151583,504290954259464,-0.010679797,0.019318478,-0.011145586,0.0005274733,-0.0003773569,-0.001677307
UncalMag,1731891151584,504290955633162,272.5086,-53.905327,-385.7604,273.9417,-25.969566,-344.5698
UncalAccel,1731891151590,504290961752120,0.8813834,0.5744574,9.962073,0.0,0.0,0.0
OrientationDeg,1731891151591,504290961752120,184.0,-4.0,-4.0
UncalMag,1731891151595,504290965574256,272.5739,-54.126923,-386.4189,273.9417,-25.969566,-344.5698
UncalGyro,1731891151593,504290964244725,-0.010147156,0.022514295,-0.0143414335,0.0005274733,-0.0003773569,-0.001677307
UncalAccel,1731891151600,504290971737329,0.91975516,0.53146905,10.067157,0.0,0.0,0.0
OrientationDeg,1731891151600,504290971737329,184.0,-4.0,-4.0
UncalMag,1731891151604,504290975515402,272.7021,-54.49782,-385.56345,273.9417,-25.969566,-344.5698
UncalGyro,1731891151604,504290974229933,-0.0037555664,0.020916427,-0.007949909,0.0005274733,-0.0003773569,-0.001677307
UncalAccel,1731891151611,504290981722589,0.91495216,0.54580295,10.081487,0.0,0.0,0.0
OrientationDeg,1731891151611,504290981722589,184.0,-4.0,-4.0
UncalMag,1731891151615,504290985455454,272.54376,-54.305172,-385.65286,273.9417,-25.969566,-344.5698
UncalGyro,1731891151613,504290984215193,0.006364446,0.012926977,-0.0020910173,0.0005274733,-0.0003773569,-0.001677307
Pressure,1731891151618,504290989946027,1014.00806
UncalAccel,1731891151620,504290991707797,0.9197436,0.579244,9.933416,0.0,0.0,0.0
OrientationDeg,1731891151620,504290991707797,184.0,-4.0,-4.0
UncalMag,1731891151624,504290995395922,272.35724,-54.347576,-386.68323,273.9417,-25.969566,-344.5698
UncalGyro,1731891151624,504290994200454,0.0138213,0.0033396329,-0.0026237061,0.0005274733,-0.0003773569,-0.001677307
UncalAccel,1731891151630,504291001693058,0.89095473,0.6174621,9.976405,0.0,0.0,0.0
OrientationDeg,1731891151631,504291001693058,184.0,-4.0,-4.0
UncalMag,1731891151634,504291005336183,271.959,-55.188717,-387.1044,273.9417,-25.969566,-344.5698
UncalGyro,1731891151634,504291004185662,0.010625518,0.0060028187,-0.01061324,0.0005274733,-0.0003773569,-0.001677307
UncalAccel,1731891151640,504291011678318,0.89094895,0.6174653,10.081488,0.0,0.0,0.0
OrientationDeg,1731891151640,504291011678318,184.0,-4.0,-4.0
UncalMag,1731891151644,504291015270297,271.9935,-55.56791,-386.37613,273.9417,-25.969566,-344.5698
UncalGyro,1731891151644,504291014170922,-0.0037555303,0.01345969,-0.017537508,0.0005274733,-0.0003773569,-0.001677307
UncalAccel,1731891151650,504291021663527,0.91972625,0.6509065,10.014618,0.0,0.0,0.0
OrientationDeg,1731891151650,504291021663527,184.0,-4.0,-4.0
UncalMag,1731891151655,504291025198318,272.276,-55.584343,-387.2359,273.9417,-25.969566,-344.5698
UncalGyro,1731891151653,504291024156183,-0.0021576262,0.009731295,-0.020200726,0.0005274733,-0.0003773569,-0.001677307
Pressure,1731891151658,504291029955350,1014.0191
UncalAccel,1731891151660,504291031648787,0.9437066,0.6365793,9.97163,0.0,0.0,0.0
OrientationDeg,1731891151660,504291031648787,184.0,-4.0,-4.0
UncalGyro,1731891151663,504291034141391,0.007962386,0.0065355315,-0.020200783,0.0005274733,-0.0003773569,-0.001677307
UncalMag,1731891151665,504291035125610,272.36395,-54.977306,-387.3615,273.9417,-25.969566,-344.5698
UncalAccel,1731891151671,504291041634047,0.87174284,0.6126984,9.981183,0.0,0.0,0.0
OrientationDeg,1731891151670,504291041634047,184.0,-4.0,-4.0
UncalMag,1731891151675,504291045057745,272.1402,-54.5579,-386.6372,273.9417,-25.969566,-344.5698
UncalGyro,1731891151674,504291044126652,0.020745557,0.0017418726,-0.020200841,0.0005274733,-0.0003773569,-0.001677307
UncalAccel,1731891151680,504291051619256,0.85734546,0.58404076,10.052832,0.0,0.0,0.0
OrientationDeg,1731891151680,504291051619256,184.0,-4.0,-4.0
UncalMag,1731891151684,504291054989256,271.765,-54.580738,-386.83582,273.9417,-25.969566,-344.5698
UncalGyro,1731891151684,504291054111912,0.027137147,-0.0067802086,-0.015407211,0.0005274733,-0.0003773569,-0.001677307
UncalAccel,1731891151690,504291061604516,0.9676751,0.62703556,10.067162,0.0,0.0,0.0
OrientationDeg,1731891151691,504291061604516,184.0,-4.0,-4.0
UncalMag,1731891151694,504291064920350,272.08115,-54.950542,-386.19138,273.9417,-25.969566,-344.5698
UncalGyro,1731891151694,504291064097120,0.03725716,-0.0030517592,-0.0052872654,0.0005274733,-0.0003773569,-0.001677307
Pressure,1731891151698,504291069968683,1013.946
UncalAccel,1731891151700,504291071589777,1.0108441,0.6748071,9.976409,0.0,0.0,0.0
OrientationDeg,1731891151700,504291071589777,184.0,-4.0,-4.0
UncalMag,1731891151703,504291074852172,272.16946,-54.353832,-386.62735,273.9417,-25.969566,-344.5698
UncalGyro,1731891151704,504291074082381,0.04844244,-0.0035843644,0.0048326813,0.0005274733,-0.0003773569,-0.001677307
UncalAccel,1731891151710,504291081574985,0.92928606,0.6413726,9.909539,0.0,0.0,0.0
OrientationDeg,1731891151710,504291081574985,184.0,-4.0,-4.0
UncalMag,1731891151714,504291084780089,271.91693,-54.15398,-386.3785,273.9417,-25.969566,-344.5698
UncalGyro,1731891151713,504291084067641,0.053236134,-0.0051822322,0.006963151,0.0005274733,-0.0003773569,-0.001677307
UncalAccel,1731891151720,504291091560245,0.90049714,0.65570635,10.014622,0.0,0.0,0.0
OrientationDeg,1731891151721,504291091560245,184.0,-4.0,-4.0
UncalMag,1731891151723,504291094709308,271.95212,-54.553825,-386.27097,273.9417,-25.969566,-344.5698
UncalGyro,1731891151724,504291094052850,0.03778982,-0.018498,0.0032346717,0.0005274733,-0.0003773569,-0.001677307
UncalAccel,1731891151731,504291101545506,0.8813026,0.6843707,10.15314,0.0,0.0,0.0
OrientationDeg,1731891151730,504291101545506,184.0,-4.0,-4.0
UncalMag,1731891151733,504291104639256,272.13446,-53.95915,-386.89008,273.9417,-25.969566,-344.5698
UncalGyro,1731891151734,504291104038110,0.018082453,-0.028617974,-0.0031569668,0.0005274733,-0.0003773569,-0.001677307
Pressure,1731891151739,504291109956131,1013.9743
UncalAccel,1731891151740,504291111530714,0.8908912,0.6843739,10.177023,0.0,0.0,0.0
OrientationDeg,1731891151740,504291111530714,184.0,-4.0,-4.0
UncalMag,1731891151743,504291114570610,272.263,-54.340378,-386.34494,273.9417,-25.969566,-344.5698
UncalGyro,1731891151744,504291114023318,0.021278253,-0.036074795,-0.0068854466,0.0005274733,-0.0003773569,-0.001677307
UncalAccel,1731891151750,504291121515975,0.9964237,0.6700468,10.177023,0.0,0.0,0.0
OrientationDeg,1731891151750,504291121515975,184.0,-4.0,-4.0
UncalMag,1731891151753,504291124502954,272.17572,-54.96807,-386.84006,273.9417,-25.969566,-344.5698
UncalGyro,1731891151753,504291124008579,0.047377214,-0.035542138,-0.013809716,0.0005274733,-0.0003773569,-0.001677307
Fix,FLP,37.4297398000,-122.1693736000,2.799999952316284,0.035934154,3.0,,1731891151694,0.05574371,,504291064097120,8.194622,,,,
UncalAccel,1731891151760,504291131501183,1.1019562,0.6652732,10.181801,0.0,0.0,0.0
OrientationDeg,1731891151761,504291131501183,184.0,-4.0,-4.0
UncalMag,1731891151763,504291134436183,272.29816,-54.74022,-386.23743,273.9417,-25.969566,-344.5698
UncalGyro,1731891151762,504291133993839,0.079867765,-0.029150527,-0.016472932,0.0005274733,-0.0003773569,-0.001677307
UncalAccel,1731891151770,504291141486443,1.0299925,0.69393754,10.134036,0.0,0.0,0.0
OrientationDeg,1731891151771,504291141486443,184.0,-4.0,-4.0
UncalMag,1731891151773,504291144368110,272.42133,-54.533024,-386.25552,273.9417,-25.969566,-344.5698
UncalGyro,1731891151773,504291143979047,0.11129305,-0.013171547,-0.01380983,0.0005274733,-0.0003773569,-0.001677307
Pressure,1731891151778,504291149949933,1014.021
UncalAccel,1731891151781,504291151471704,0.9580288,0.71782494,10.071942,0.0,0.0,0.0
OrientationDeg,1731891151780,504291151471704,184.0,-4.0,-4.0
UncalMag,1731891151783,504291154299829,272.01654,-54.7496,-386.1536,273.9417,-25.969566,-344.5698
UncalGyro,1731891151783,504291153964308,0.1203478,0.014525332,-0.007950938,0.0005274733,-0.0003773569,-0.001677307
UncalAccel,1731891151790,504291161456912,0.9580231,0.7464892,9.938203,0.0,0.0,0.0
OrientationDeg,1731891151790,504291161456912,184.0,-4.0,-4.0
UncalMag,1731891151793,504291164227277,272.1156,-55.32973,-385.46313,273.9417,-25.969566,-344.5698
UncalGyro,1731891151792,504291163949568,0.11289096,0.04435274,-0.0058204685,0.0005274733,-0.0003773569,-0.001677307
UncalAccel,1731891151800,504291171442172,0.929234,0.7655999,9.809238,0.0,0.0,0.0
OrientationDeg,1731891151801,504291171442172,184.0,-4.0,-4.0
UncalMag,1731891151804,504291174160662,272.45663,-54.93803,-386.30316,273.9417,-25.969566,-344.5698
UncalGyro,1731891151802,504291173934777,0.091585696,0.061929613,-0.008483685,0.0005274733,-0.0003773569,-0.001677307
UncalAccel,1731891151810,504291181427433,0.8284873,0.77037996,9.751922,0.0,0.0,0.0
OrientationDeg,1731891151810,504291181427433,184.0,-4.0,-4.0
UncalMag,1731891151814,504291184094933,272.45093,-54.339287,-386.55603,273.9417,-25.969566,-344.5698
UncalGyro,1731891151812,504291183920037,0.06335622,0.057135954,-0.010081637,0.0005274733,-0.0003773569,-0.001677307
Pressure,1731891151818,504291189958787,1013.96606
UncalAccel,1731891151821,504291191412641,0.71814597,0.7369455,9.732816,0.0,0.0,0.0
OrientationDeg,1731891151820,504291191412641,184.0,-4.0,-4.0
UncalMag,1731891151824,504291194030506,272.3867,-54.14867,-386.82858,273.9417,-25.969566,-344.5698
UncalGyro,1731891151823,504291193905297,0.042583592,0.02358018,-0.012744853,0.0005274733,-0.0003773569,-0.001677307
UncalAccel,1731891151830,504291201397902,0.70374864,0.7465025,9.72804,0.0,0.0,0.0
OrientationDeg,1731891151830,504291201397902,184.0,-4.0,-4.0
UncalMag,1731891151833,504291203965402,272.10538,-54.168377,-387.05508,273.9417,-25.969566,-344.5698
UncalGyro,1731891151832,504291203890506,0.041518338,-0.035009287,-0.02126702,0.0005274733,-0.0003773569,-0.001677307
UncalAccel,1731891151840,504291211383162,0.7421204,0.7751668,9.880888,0.0,0.0,0.0
OrientationDeg,1731891151840,504291211383162,184.0,-4.0,-4.0
UncalMag,1731891151843,504291213896652,271.85858,-54.56728,-386.55338,273.9417,-25.969566,-344.5698
UncalGyro,1731891151842,504291213875766,0.05643204,-0.085076645,-0.030854445,0.0005274733,-0.0003773569,-0.001677307
UncalAccel,1731891151851,504291221368370,0.8044781,0.751286,10.038512,0.0,0.0,0.0
OrientationDeg,1731891151850,504291221368370,184.0,-4.0,-4.0
UncalMag,1731891151852,504291223826131,271.95297,-54.579643,-387.04688,273.9417,-25.969566,-344.5698
UncalGyro,1731891151852,504291223861027,0.0841289,-0.09093557,-0.03298503,0.0005274733,-0.0003773569,-0.001677307
Pressure,1731891151858,504291229952537,1014.01196
UncalAccel,1731891151861,504291231353631,0.89082193,0.7608429,9.995523,0.0,0.0,0.0
OrientationDeg,1731891151861,504291231353631,184.0,-4.0,-4.0
UncalMag,1731891151862,504291233755089,272.1057,-54.178707,-387.36545,273.9417,-25.969566,-344.5698
UncalGyro,1731891151862,504291233846235,0.110760495,-0.06856501,-0.028724035,0.0005274733,-0.0003773569,-0.001677307
UncalAccel,1731891151871,504291241338839,0.9915572,0.69874734,9.966865,0.0,0.0,0.0
OrientationDeg,1731891151870,504291241338839,184.0,-4.0,-4.0
UncalMag,1731891151873,504291243683631,271.7652,-54.5859,-386.99097,273.9417,-25.969566,-344.5698
UncalGyro,1731891151872,504291243831495,0.12567419,-0.032878652,-0.02925672,0.0005274733,-0.0003773569,-0.001677307
UncalAccel,1731891151880,504291251324100,1.0155374,0.67964333,10.019407,0.0,0.0,0.0
OrientationDeg,1731891151880,504291251324100,184.0,-4.0,-4.0
UncalMag,1731891151882,504291253613266,271.67133,-54.589024,-386.963,273.9417,-25.969566,-344.5698
UncalGyro,1731891151882,504291253816704,0.12514156,0.0017424393,-0.02925678,0.0005274733,-0.0003773569,-0.001677307
UncalAccel,1731891151890,504291261309360,0.98195124,0.6844234,10.000302,0.0,0.0,0.0
OrientationDeg,1731891151890,504291261309360,184.0,-4.0,-4.0
UncalMag,1731891151892,504291263540193,272.01132,-54.166344,-386.872,273.9417,-25.969566,-344.5698
UncalGyro,1731891151892,504291263801912,0.12727211,0.013460365,-0.02073473,0.0005274733,-0.0003773569,-0.001677307
Pressure,1731891151898,504291269952745,1013.9741
UncalAccel,1731891151900,504291271294464,0.95795953,0.73697186,9.904774,0.0,0.0,0.0
OrientationDeg,1731891151901,504291271294464,184.0,-4.0,-4.0
UncalMag,1731891151902,504291273467902,272.14072,-54.57339,-387.10275,273.9417,-25.969566,-344.5698
UncalGyro,1731891151902,504291273787016,0.14751212,0.008666706,-0.004223202,0.0005274733,-0.0003773569,-0.001677307
UncalAccel,1731891151910,504291281279568,0.9483593,0.7513057,9.895221,0.0,0.0,0.0
OrientationDeg,1731891151911,504291281279568,184.0,-4.0,-5.0
UncalMag,1731891151912,504291283395714,272.18195,-55.58231,-387.0528,273.9417,-25.969566,-344.5698
UncalGyro,1731891151913,504291283772120,0.18000267,0.0081341015,0.0144188525,0.0005274733,-0.0003773569,-0.001677307
UncalAccel,1731891151921,504291291264672,0.95315087,0.82296157,9.833127,0.0,0.0,0.0
OrientationDeg,1731891151920,504291291264672,184.0,-4.0,-5.0
UncalMag,1731891151922,504291293324881,271.84195,-56.00499,-387.14383,273.9417,-25.969566,-344.5698
UncalGyro,1731891151923,504291293757225,0.20503637,0.0076014968,0.021343008,0.0005274733,-0.0003773569,-0.001677307
UncalAccel,1731891151930,504291301249829,0.9867254,0.8372953,9.804469,0.0,0.0,0.0
OrientationDeg,1731891151930,504291301249829,184.0,-4.0,-5.0
UncalMag,1731891151933,504291303255766,271.58405,-55.21672,-387.45816,273.9417,-25.969566,-344.5698
UncalGyro,1731891151932,504291303742381,0.20450374,-0.01157322,0.017614529,0.0005274733,-0.0003773569,-0.001677307
Pressure,1731891151938,504291309952745,1013.9346
UncalAccel,1731891151940,504291311234933,0.9771252,0.83729863,9.866564,0.0,0.0,0.0
OrientationDeg,1731891151941,504291311234933,184.0,-4.0,-5.0
UncalMag,1731891151942,504291313185818,271.8009,-55.001236,-387.349,273.9417,-25.969566,-344.5698
UncalGyro,1731891151942,504291313727485,0.1831985,-0.03607425,0.010157627,0.0005274733,-0.0003773569,-0.001677307
UncalAccel,1731891151951,504291321220037,0.96752506,0.8659629,9.880894,0.0,0.0,0.0
OrientationDeg,1731891151950,504291321220037,184.0,-4.0,-5.0
UncalMag,1731891151953,504291323119100,271.74234,-55.409374,-387.3687,273.9417,-25.969566,-344.5698
UncalGyro,1731891151953,504291323712589,0.15390375,-0.03767212,-0.0004950657,0.0005274733,-0.0003773569,-0.001677307
UncalAccel,1731891151961,504291331205141,0.9867081,0.89462715,9.766259,0.0,0.0,0.0
OrientationDeg,1731891151961,504291331205141,184.0,-4.0,-5.0
UncalMag,1731891151963,504291333049985,271.6185,-55.59591,-386.72992,273.9417,-25.969566,-344.5698
UncalGyro,1731891151962,504291333697693,0.12993534,-0.0360742,-0.014343549,0.0005274733,-0.0003773569,-0.001677307
UncalAccel,1731891151971,504291341190245,0.9914994,0.88985366,9.823578,0.0,0.0,0.0
OrientationDeg,1731891151971,504291341190245,184.0,-4.0,-5.0
UncalMag,1731891151972,504291342979881,271.64795,-55.39701,-386.87527,273.9417,-25.969566,-344.5698
UncalGyro,1731891151972,504291343682797,0.11928271,-0.044596277,-0.027659401,0.0005274733,-0.0003773569,-0.001677307
Pressure,1731891151978,504291349954829,1013.9594
UncalAccel,1731891151981,504291351175402,1.1258152,0.90418744,9.923883,0.0,0.0,0.0
OrientationDeg,1731891151981,504291351175402,184.0,-4.0,-5.0
UncalMag,1731891151981,504291352909100,271.48947,-55.199192,-386.8095,273.9417,-25.969566,-344.5698
UncalGyro,1731891151982,504291353667954,0.13206586,-0.035541512,-0.022865772,0.0005274733,-0.0003773569,-0.001677307
UncalAccel,1731891151991,504291361160506,1.164187,0.90896755,9.861791,0.0,0.0,0.0
OrientationDeg,1731891151991,504291361160506,184.0,-4.0,-5.0
UncalMag,1731891151991,504291362838318,271.6476,-55.38668,-386.56485,273.9417,-25.969566,-344.5698
UncalGyro,1731891151993,504291363653058,0.15177326,-0.009442531,-0.012745825,0.0005274733,-0.0003773569,-0.001677307
UncalAccel,1731891152001,504291371145610,1.1306008,0.904194,9.852238,0.0,0.0,0.0
OrientationDeg,1731891152001,504291371145610,184.0,-4.0,-5.0
UncalMag,1731891152001,504291372766808,271.7124,-55.59278,-386.75787,273.9417,-25.969566,-344.5698
UncalGyro,1731891152002,504291373638162,0.15869749,0.026776457,0.004830966,0.0005274733,-0.0003773569,-0.001677307
UncalAccel,1731891152011,504291381130714,1.0970147,0.88031316,9.947768,0.0,0.0,0.0
OrientationDeg,1731891152010,504291381130714,184.0,-4.0,-5.0
UncalMag,1731891152011,504291382694672,271.4659,-56.002007,-386.56647,273.9417,-25.969566,-344.5698
UncalGyro,1731891152012,504291383623266,0.14857748,0.074713334,0.015483544,0.0005274733,-0.0003773569,-0.001677307
Pressure,1731891152018,504291389950714,1013.94946
UncalAccel,1731891152020,504291391115818,1.025051,0.9042006,9.909557,0.0,0.0,0.0
OrientationDeg,1731891152020,504291391115818,184.0,-4.0,-6.0
UncalMag,1731891152021,504291392627068,271.49518,-55.79794,-386.5566,273.9417,-25.969566,-344.5698
UncalGyro,1731891152022,504291393608370,0.12940276,0.112530224,0.01654875,0.0005274733,-0.0003773569,-0.001677307
UncalAccel,1731891152031,504291401100975,0.97227615,0.8468819,9.861793,0.0,0.0,0.0
OrientationDeg,1731891152030,504291401100975,184.0,-4.0,-6.0
UncalMag,1731891152031,504291402557120,271.37186,-55.999973,-386.3834,273.9417,-25.969566,-344.5698
UncalGyro,1731891152033,504291403593527,0.09904276,0.12051973,0.008026585,0.0005274733,-0.0003773569,-0.001677307
UncalAccel,1731891152041,504291411086079,1.0586199,0.81822425,9.837911,0.0,0.0,0.0
OrientationDeg,1731891152040,504291411086079,184.0,-4.0,-6.0
UncalMag,1731891152041,504291412487172,271.55927,-55.98339,-386.1289,273.9417,-25.969566,-344.5698
UncalGyro,1731891152042,504291413578631,0.061225906,0.113595545,-0.022333482,0.0005274733,-0.0003773569,-0.001677307
UncalAccel,1731891152051,504291421071183,1.1401664,0.8659959,9.847464,0.0,0.0,0.0
OrientationDeg,1731891152050,504291421071183,184.0,-4.0,-6.0
UncalMag,1731891152051,504291422416287,271.5596,-55.99372,-386.43927,273.9417,-25.969566,-344.5698
UncalGyro,1731891152052,504291423563735,0.024474323,0.08856188,-0.06600934,0.0005274733,-0.0003773569,-0.001677307
Pressure,1731891152058,504291429951964,1013.93964
UncalAccel,1731891152060,504291431056287,1.1209718,0.8612223,9.861794,0.0,0.0,0.0
OrientationDeg,1731891152060,504291431056287,184.0,-4.0,-6.0
UncalMag,1731891152061,504291432346339,271.40756,-56.41531,-386.7414,273.9417,-25.969566,-344.5698
UncalGyro,1731891152062,504291433548839,0.0031690605,0.053408206,-0.10648942,0.0005274733,-0.0003773569,-0.001677307
UncalAccel,1731891152071,504291441041391,1.0346166,0.8755562,9.900007,0.0,0.0,0.0
OrientationDeg,1731891152070,504291441041391,184.0,-4.0,-6.0
UncalMag,1731891152072,504291442276079,271.46677,-56.02783,-387.34238,273.9417,-25.969566,-344.5698
UncalGyro,1731891152073,504291443533943,-0.009081461,0.00706927,-0.15123054,0.0005274733,-0.0003773569,-0.001677307
UncalAccel,1731891152080,504291451026547,1.0106248,0.89466673,9.90956,0.0,0.0,0.0
OrientationDeg,1731891152080,504291451026547,184.0,-4.0,-6.0
UncalMag,1731891152081,504291452206704,271.80676,-55.605145,-387.25137,273.9417,-25.969566,-344.5698
UncalGyro,1731891152082,504291453519100,-0.0128098745,-0.023823345,-0.19597167,0.0005274733,-0.0003773569,-0.001677307
UncalAccel,1731891152090,504291461011652,1.0394022,0.923331,9.957326,0.0,0.0,0.0
OrientationDeg,1731891152091,504291461011652,184.0,-4.0,-6.0
UncalMag,1731891152091,504291462134777,272.1236,-55.99561,-387.22766,273.9417,-25.969566,-344.5698
UncalGyro,1731891152092,504291463504204,-0.013875129,-0.0419328,-0.23538648,0.0005274733,-0.0003773569,-0.001677307
Pressure,1731891152098,504291469953787,1013.9965
UncalAccel,1731891152099,504291470996756,1.005816,0.94244164,10.009868,0.0,0.0,0.0
OrientationDeg,1731891152099,504291470996756,184.0,-4.0,-6.0
UncalMag,1731891152102,504291472065766,272.28778,-56.792175,-387.0406,273.9417,-25.969566,-344.5698
UncalGyro,1731891152102,504291473489308,-0.014407752,-0.03926961,-0.26361603,0.0005274733,-0.0003773569,-0.001677307
UncalAccel,1731891152109,504291480981860,0.9866215,0.97588277,10.086291,0.0,0.0,0.0
OrientationDeg,1731891152109,504291480981860,185.0,-4.0,-6.0
UncalMag,1731891152111,504291481994620,272.56265,-56.153057,-386.44617,273.9417,-25.969566,-344.5698
UncalGyro,1731891152112,504291483474412,-0.011211952,-0.031280108,-0.28705186,0.0005274733,-0.0003773569,-0.001677307
UncalAccel,1731891152120,504291490966964,1.0777624,0.9711093,9.995539,0.0,0.0,0.0
OrientationDeg,1731891152120,504291490966964,185.0,-4.0,-6.0
UncalMag,1731891152121,504291491928266,272.029,-55.978085,-386.579,273.9417,-25.969566,-344.5698
UncalGyro,1731891152122,504291493459516,0.0010385874,-0.00944218,-0.31102037,0.0005274733,-0.0003773569,-0.001677307
UncalAccel,1731891152130,504291500952120,1.1065397,0.9997736,9.880904,0.0,0.0,0.0
OrientationDeg,1731891152129,504291500952120,185.0,-4.0,-6.0
UncalMag,1731891152130,504291501861391,271.65955,-56.599667,-386.52475,273.9417,-25.969566,-344.5698
UncalGyro,1731891152132,504291503444672,0.004234387,0.03742944,-0.34457624,0.0005274733,-0.0003773569,-0.001677307
Pressure,1731891152138,504291509952797,1014.00916
UncalAccel,1731891152139,504291510937225,1.0681565,1.080983,9.785376,0.0,0.0,0.0
OrientationDeg,1731891152139,504291510937225,185.0,-4.0,-6.0
UncalMag,1731891152140,504291511794204,271.97116,-56.406876,-387.21942,273.9417,-25.969566,-344.5698
UncalGyro,1731891152142,504291513429777,-0.017070875,0.10134528,-0.39251316,0.0005274733,-0.0003773569,-0.001677307
UncalAccel,1731891152150,504291520922329,1.1832834,1.1574155,9.618199,0.0,0.0,0.0
OrientationDeg,1731891152150,504291520922329,185.0,-4.0,-6.0
UncalMag,1731891152150,504291521725818,271.97202,-56.432697,-387.99533,273.9417,-25.969566,-344.5698
UncalGyro,1731891152153,504291523414881,-0.037843503,0.15567374,-0.43778688,0.0005274733,-0.0003773569,-0.001677307
UncalAccel,1731891152159,504291530907433,1.2456411,1.0188907,9.943,0.0,0.0,0.0
UncalMag,1731891152161,504291531657745,272.15906,-56.405785,-387.43054,273.9417,-25.969566,-344.5698
OrientationDeg,1731891152159,504291530907433,186.0,-4.0,-6.0
UncalGyro,1731891152162,504291533399985,0.075074434,0.3021475,-0.47081012,0.0005274733,-0.0003773569,-0.001677307
UncalAccel,1731891152169,504291540892537,0.8330766,1.0380014,8.9112835,0.0,0.0,0.0
OrientationDeg,1731891152169,504291540892537,186.0,-4.0,-6.0
UncalMag,1731891152170,504291541590297,272.78625,-56.567303,-387.01523,273.9417,-25.969566,-344.5698
UncalGyro,1731891152172,504291543385141,0.19864503,0.25634122,-0.46708173,0.0005274733,-0.0003773569,-0.001677307
Pressure,1731891152178,504291549954881,1014.0292
UncalAccel,1731891152179,504291550877693,0.53084755,1.0762194,9.245636,0.0,0.0,0.0
OrientationDeg,1731891152180,504291550877693,186.0,-4.0,-6.0
UncalMag,1731891152181,504291551525766,272.7625,-57.36496,-386.6171,273.9417,-25.969566,-344.5698
UncalGyro,1731891152182,504291553370245,0.19598186,0.21692647,-0.49531126,0.0005274733,-0.0003773569,-0.001677307
UncalAccel,1731891152190,504291560862797,0.4924642,0.95202506,10.038532,0.0,0.0,0.0
UncalMag,1731891152190,504291561458266,272.60507,-57.198124,-387.48242,273.9417,-25.969566,-344.5698
OrientationDeg,1731891152189,504291560862797,186.0,-3.0,-6.0
UncalGyro,1731891152192,504291563355350,0.13685974,0.26699388,-0.546444,0.0005274733,-0.0003773569,-0.001677307
UncalMag,1731891152200,504291571391131,273.07376,-57.16184,-387.00146,273.9417,-25.969566,-344.5698
UncalAccel,1731891152199,504291570847902,0.2621931,0.8899295,9.455801,0.0,0.0,0.0
OrientationDeg,1731891152199,504291570847902,187.0,-3.0,-6.0
UncalGyro,1731891152202,504291573340454,0.13206607,0.16632652,-0.6375241,0.0005274733,-0.0003773569,-0.001677307
UncalAccel,1731891152209,504291580833006,0.49245265,0.8469413,9.522674,0.0,0.0,0.0
UncalMag,1731891152211,504291581322745,273.38348,-56.912235,-385.98917,273.9417,-25.969566,-344.5698
OrientationDeg,1731891152209,504291580833006,187.0,-3.0,-6.0
UncalGyro,1731891152212,504291583325558,0.14591451,0.13223812,-0.6859937,0.0005274733,-0.0003773569,-0.001677307
Pressure,1731891152218,504291589948631,1013.94305
UncalAccel,1731891152219,504291590818110,0.7323066,0.8421677,9.388933,0.0,0.0,0.0
UncalMag,1731891152221,504291591253631,273.88266,-56.708023,-386.58456,273.9417,-25.969566,-344.5698
OrientationDeg,1731891152219,504291590818110,187.0,-3.0,-6.0
UncalGyro,1731891152222,504291593310714,0.15496926,0.09122549,-0.7078316,0.0005274733,-0.0003773569,-0.001677307
UncalAccel,1731891152230,504291600803266,0.7706784,0.89949304,9.236086,0.0,0.0,0.0
UncalMag,1731891152230,504291601185558,274.2869,-56.475952,-386.22095,273.9417,-25.969566,-344.5698
OrientationDeg,1731891152229,504291600803266,188.0,-3.0,-7.0
UncalGyro,1731891152232,504291603295818,0.14165348,0.012928651,-0.74458325,0.0005274733,-0.0003773569,-0.001677307
UncalMag,1731891152240,504291611119412,274.37436,-55.853424,-385.88098,273.9417,-25.969566,-344.5698
UncalAccel,1731891152240,504291610788370,0.7514838,0.8708353,9.417593,0.0,0.0,0.0
OrientationDeg,1731891152240,504291610788370,188.0,-3.0,-7.0
UncalGyro,1731891152243,504291613280922,0.09957557,-0.057378717,-0.8005096,0.0005274733,-0.0003773569,-0.001677307
UncalMag,1731891152250,504291621054256,274.8498,-56.446865,-386.07825,273.9417,-25.969566,-344.5698
UncalAccel,1731891152250,504291620773475,0.79945004,0.6988727,9.55611,0.0,0.0,0.0
OrientationDeg,1731891152249,504291620773475,189.0,-3.0,-7.0
UncalGyro,1731891152252,504291623266027,0.036725033,-0.107446074,-0.8511097,0.0005274733,-0.0003773569,-0.001677307
Pressure,1731891152258,504291629948370,1013.8707
UncalAccel,1731891152259,504291630758579,0.94815725,0.5173562,9.728065,0.0,0.0,0.0
UncalMag,1731891152259,504291630988631,275.23038,-57.01245,-385.3165,273.9417,-25.969566,-344.5698
OrientationDeg,1731891152260,504291630758579,189.0,-3.0,-7.0
UncalGyro,1731891152262,504291633251131,-0.052757096,-0.11650079,-0.8836003,0.0005274733,-0.0003773569,-0.001677307
UncalAccel,1731891152269,504291640743683,1.1496338,0.4695912,9.818818,0.0,0.0,0.0
UncalMag,1731891152269,504291640921339,275.35315,-56.794926,-385.0242,273.9417,-25.969566,-344.5698
OrientationDeg,1731891152269,504291640743683,190.0,-3.0,-7.0
UncalGyro,1731891152273,504291643236287,-0.17153397,-0.10797865,-0.90384036,0.0005274733,-0.0003773569,-0.001677307
UncalAccel,1731891152280,504291650728839,1.2071943,0.5508006,9.699407,0.0,0.0,0.0
UncalMag,1731891152280,504291650854464,275.3757,-55.961124,-384.3361,273.9417,-25.969566,-344.5698
OrientationDeg,1731891152279,504291650728839,190.0,-3.0,-7.0
UncalGyro,1731891152282,504291653221391,-0.28072345,-0.08720598,-0.90650356,0.0005274733,-0.0003773569,-0.001677307
UncalMag,1731891152289,504291660785245,275.18896,-55.998363,-385.2113,273.9417,-25.969566,-344.5698
UncalAccel,1731891152289,504291660713943,1.2023913,0.5985724,9.589548,0.0,0.0,0.0
OrientationDeg,1731891152289,504291660713943,191.0,-3.0,-7.0
UncalGyro,1731891152293,504291663206495,-0.36274874,-0.034475412,-0.8777415,0.0005274733,-0.0003773569,-0.001677307
Pressure,1731891152298,504291669947329,1013.8443
UncalAccel,1731891152300,504291670699047,1.4086648,0.55558413,9.852256,0.0,0.0,0.0
UncalMag,1731891152300,504291670718787,275.32007,-56.457047,-386.9939,273.9417,-25.969566,-344.5698
OrientationDeg,1731891152299,504291670699047,191.0,-3.0,-6.0
UncalGyro,1731891152303,504291673191600,-0.38831508,0.121053085,-0.8500447,0.0005274733,-0.0003773569,-0.001677307
UncalMag,1731891152309,504291680651391,276.1935,-56.204185,-386.61484,273.9417,-25.969566,-344.5698
UncalAccel,1731891152310,504291680684152,2.1906018,0.41228244,10.430209,0.0,0.0,0.0
OrientationDeg,1731891152309,504291680684152,192.0,-3.0,-6.0
UncalGyro,1731891152312,504291683176704,-0.22000343,0.38949952,-0.927809,0.0005274733,-0.0003773569,-0.001677307
UncalAccel,1731891152320,504291690669256,0.7322488,0.84220064,8.266467,0.0,0.0,0.0
UncalMag,1731891152320,504291690582693,276.25763,-56.389626,-386.1871,273.9417,-25.969566,-344.5698
OrientationDeg,1731891152319,504291690669256,192.0,-2.0,-6.0
UncalGyro,1731891152322,504291693161860,-0.06926862,0.06352891,-1.0385964,0.0005274733,-0.0003773569,-0.001677307
UncalAccel,1731891152329,504291700654412,0.85217303,0.5890318,10.076751,0.0,0.0,0.0
UncalMag,1731891152329,504291700511964,276.5685,-56.17618,-386.26108,273.9417,-25.969566,-344.5698
OrientationDeg,1731891152329,504291700654412,193.0,-2.0,-6.0
UncalGyro,1731891152333,504291703146964,-0.0026896456,0.15727213,-1.0950556,0.0005274733,-0.0003773569,-0.001677307
Pressure,1731891152338,504291709947797,1013.8819
UncalMag,1731891152340,504291710443839,277.09714,-55.773064,-387.0018,273.9417,-25.969566,-344.5698
UncalAccel,1731891152339,504291710639516,1.3222922,0.30720198,10.048093,0.0,0.0,0.0
OrientationDeg,1731891152339,504291710639516,194.0,-2.0,-6.0
UncalGyro,1731891152342,504291713132068,0.043649323,0.16579425,-1.1206219,0.0005274733,-0.0003773569,-0.001677307
UncalAccel,1731891152350,504291720624620,1.3558669,0.43140292,9.732847,0.0,0.0,0.0
UncalMag,1731891152349,504291720378683,276.97467,-56.000916,-387.60446,273.9417,-25.969566,-344.5698
OrientationDeg,1731891152349,504291720624620,194.0,-2.0,-6.0
UncalGyro,1731891152352,504291723117172,0.07081355,0.09442163,-1.1429925,0.0005274733,-0.0003773569,-0.001677307
UncalMag,1731891152360,504291730312068,277.68982,-55.555397,-387.3148,273.9417,-25.969566,-344.5698
UncalAccel,1731891152360,504291730609725,1.3126864,0.6081491,9.871365,0.0,0.0,0.0
OrientationDeg,1731891152359,504291730609725,195.0,-2.0,-6.0
UncalGyro,1731891152362,504291733102277,0.0697483,-0.0067783725,-1.1834725,0.0005274733,-0.0003773569,-0.001677307
UncalAccel,1731891152370,504291740594829,1.2743032,0.7180194,10.005107,0.0,0.0,0.0
UncalMag,1731891152369,504291740244152,278.09393,-55.31816,-386.79602,273.9417,-25.969566,-344.5698
OrientationDeg,1731891152370,504291740594829,196.0,-2.0,-6.0
UncalGyro,1731891152372,504291743087433,0.055367254,-0.10478259,-1.2452579,0.0005274733,-0.0003773569,-0.001677307
Pressure,1731891152378,504291749949412,1013.86346
UncalAccel,1731891152379,504291750579985,1.3846327,0.69413865,10.071977,0.0,0.0,0.0
UncalMag,1731891152379,504291750172172,278.22244,-55.699387,-386.2509,273.9417,-25.969566,-344.5698
OrientationDeg,1731891152380,504291750579985,196.0,-2.0,-6.0
UncalGyro,1731891152383,504291753072537,0.038323045,-0.18361205,-1.30438,0.0005274733,-0.0003773569,-0.001677307
UncalMag,1731891152389,504291760101339,278.38092,-55.8972,-386.31662,273.9417,-25.969566,-344.5698
UncalAccel,1731891152389,504291760565089,1.4373962,0.75146395,10.062426,0.0,0.0,0.0
OrientationDeg,1731891152389,504291760565089,197.0,-2.0,-6.0
UncalGyro,1731891152393,504291763057745,0.04897569,-0.26883313,-1.3741549,0.0005274733,-0.0003773569,-0.001677307
UncalMag,1731891152399,504291770030610,278.63382,-56.10738,-386.8759,273.9417,-25.969566,-344.5698
UncalAccel,1731891152399,504291770550454,1.475768,0.8804417,9.8570385,0.0,0.0,0.0
OrientationDeg,1731891152399,504291770550454,198.0,-2.0,-6.0
UncalGyro,1731891152403,504291773043162,0.07613991,-0.3732289,-1.4583108,0.0005274733,-0.0003773569,-0.001677307
UncalMag,1731891152408,504291779958527,279.1323,-55.882515,-386.8506,273.9417,-25.969566,-344.5698
UncalAccel,1731891152409,504291780535870,1.5765032,1.0189732,9.73285,0.0,0.0,0.0
OrientationDeg,1731891152409,504291780535870,199.0,-2.0,-7.0
UncalGyro,1731891152413,504291783028579,0.10277152,-0.44460154,-1.5429993,0.0005274733,-0.0003773569,-0.001677307
Pressure,1731891152418,504291789980089,1013.89185
UncalMag,1731891152419,504291789885297,279.00864,-56.074223,-386.36694,273.9417,-25.969566,-344.5698
UncalAccel,1731891152419,504291790521235,1.7491965,1.0906291,9.828381,0.0,0.0,0.0
OrientationDeg,1731891152419,504291790521235,200.0,-2.0,-7.0
UncalGyro,1731891152422,504291793013943,0.10490205,-0.452591,-1.6079804,0.0005274733,-0.0003773569,-0.001677307
UncalMag,1731891152428,504291799813995,279.1084,-56.675003,-386.2972,273.9417,-25.969566,-344.5698
UncalAccel,1731891152430,504291800506652,1.9218898,1.1813921,9.876144,0.0,0.0,0.0
OrientationDeg,1731891152430,504291800506652,200.0,-2.0,-7.0
UncalGyro,1731891152431,504291802999360,0.07667258,-0.42862254,-1.6399384,0.0005274733,-0.0003773569,-0.001677307
UncalMag,1731891152438,504291809741131,279.35486,-56.265774,-386.48862,273.9417,-25.969566,-344.5698
UncalAccel,1731891152439,504291810492068,2.046611,1.2721553,9.77584,0.0,0.0,0.0
OrientationDeg,1731891152439,504291810492068,201.0,-2.0,-7.0
UncalGyro,1731891152441,504291812984777,0.030333623,-0.39666462,-1.6457974,0.0005274733,-0.0003773569,-0.001677307
UncalMag,1731891152448,504291819669933,279.81818,-55.641064,-386.5708,273.9417,-25.969566,-344.5698
UncalAccel,1731891152449,504291820477485,2.037011,1.3008194,9.771064,0.0,0.0,0.0
OrientationDeg,1731891152449,504291820477485,202.0,-2.0,-7.0
UncalGyro,1731891152452,504291822970193,-0.026125336,-0.36097825,-1.6239595,0.0005274733,-0.0003773569,-0.001677307
Pressure,1731891152458,504291829932537,1013.8849
UncalMag,1731891152458,504291829600506,280.317,-55.42652,-386.85583,273.9417,-25.969566,-344.5698
UncalAccel,1731891152459,504291830462902,1.9986277,1.3008227,9.847487,0.0,0.0,0.0
OrientationDeg,1731891152460,504291830462902,203.0,-2.0,-7.0
UncalGyro,1731891152462,504291832955610,-0.08737798,-0.33168346,-1.5866754,0.0005274733,-0.0003773569,-0.001677307
UncalMag,1731891152468,504291839530558,280.3177,-55.447178,-387.4766,273.9417,-25.969566,-344.5698
UncalAccel,1731891152469,504291840448318,1.9986218,1.2864957,9.866594,0.0,0.0,0.0
OrientationDeg,1731891152469,504291840448318,204.0,-2.0,-7.0
UncalGyro,1731891152472,504291842941027,-0.13691378,-0.32689297,-1.5344708,0.0005274733,-0.0003773569,-0.001677307
UncalAccel,1731891152479,504291850433735,2.0239716,1.2188413,9.852128,0.0,0.0,0.0
UncalMag,1731891152478,504291849460610,280.6279,-55.21307,-386.9298,273.9417,-25.969566,-344.5698
OrientationDeg,1731891152480,504291850433735,205.0,-3.0,-7.0
UncalGyro,1731891152482,504291852926443,-0.16514432,-0.3466035,-1.4907882,0.00053453585,-0.00037726082,-0.0016775369
UncalMag,1731891152489,504291859390506,280.997,-54.58116,-386.6737,273.9417,-25.969566,-344.5698
UncalAccel,1731891152490,504291860419152,1.9376236,1.1424109,9.852128,0.0,0.0,0.0
OrientationDeg,1731891152489,504291860419152,206.0,-3.0,-7.0
UncalGyro,1731891152492,504291862911860,-0.1747317,-0.36045194,-1.4753419,0.00053453585,-0.00037726082,-0.0016775369
UncalMag,1731891152498,504291869322537,281.15567,-54.784138,-386.89468,273.9417,-25.969566,-344.5698
Pressure,1731891152498,504291869925350,1013.9536
UncalAccel,1731891152499,504291870404568,1.7457374,1.1041952,9.985869,0.0,0.0,0.0
OrientationDeg,1731891152499,504291870404568,207.0,-3.0,-7.0
UncalGyro,1731891152502,504291872897277,-0.1848517,-0.37057197,-1.4881251,0.00053453585,-0.00037726082,-0.0016775369
UncalMag,1731891152509,504291879254308,281.22043,-54.990242,-387.08762,273.9417,-25.969566,-344.5698
UncalAccel,1731891152509,504291880389985,1.5586482,1.0898639,10.033634,0.0,0.0,0.0
Status,1731891150000,32,0,1,2,1575420030,25.20,63.0,20.0,1,1,1,
Status,1731891150000,32,1,1,7,1575420030,20.00,120.0,18.0,1,1,1,
Status,1731891150000,32,2,1,13,1575420030,38.60,261.0,55.0,1,1,1,
Status,1731891150000,32,3,1,14,1575420030,33.60,26.0,63.0,1,1,1,
Status,1731891150000,32,4,1,15,1575420030,39.50,293.0,28.0,1,1,1,
Status,1731891150000,32,5,1,17,1575420030,33.10,158.0,70.0,1,1,1,
Status,1731891150000,32,6,1,19,1575420030,35.00,194.0,41.0,1,1,1,
Status,1731891150000,32,7,1,21,1575420030,32.30,45.0,11.0,1,1,1,
Status,1731891150000,32,8,1,22,1575420030,30.90,326.0,68.0,1,1,1,
Status,1731891150000,32,9,1,30,1575420030,32.90,115.0,51.0,1,1,1,
Status,1731891150000,32,10,1,24,1575420030,0.00,309.0,1.0,0,1,0,
Status,1731891150000,32,11,3,14,1602000000,34.20,57.0,40.0,1,1,1,
Status,1731891150000,32,12,3,6,1602000000,19.70,327.0,14.0,0,1,0,
Status,1731891150000,32,13,3,16,1602000000,33.40,289.0,11.0,1,1,0,
Status,1731891150000,32,14,3,15,1602000000,28.50,334.0,49.0,1,1,1,
Status,1731891150000,32,15,3,5,1602000000,28.80,260.0,35.0,1,1,1,
Status,1731891150000,32,16,3,24,1602000000,34.70,66.0,40.0,1,1,1,
Status,1731891150000,32,17,3,23,1602000000,16.30,18.0,4.0,0,1,0,
Status,1731891150000,32,18,3,17,1602000000,24.10,140.0,35.0,1,1,1,
Status,1731891150000,32,19,3,4,1602000000,30.20,209.0,15.0,1,1,1,
Status,1731891150000,32,20,3,18,1602000000,0.00,174.0,2.0,0,1,0,
Status,1731891150000,32,21,2,133,1575420030,30.10,0.0,0.0,0,0,0,
Status,1731891150000,32,22,2,135,1575420030,32.90,0.0,0.0,0,0,0,
Status,1731891150000,32,23,6,7,1575420030,31.00,184.0,30.0,1,1,0,
Status,1731891150000,32,24,6,15,1575420030,20.90,118.0,18.0,1,1,0,
Status,1731891150000,32,25,6,19,1575420030,34.10,310.0,27.0,1,1,0,
Status,1731891150000,32,26,6,21,1575420030,29.60,267.0,29.0,1,1,0,
Status,1731891150000,32,27,6,27,1575420030,30.00,337.0,69.0,1,1,0,
Status,1731891150000,32,28,6,29,1575420030,35.00,255.0,53.0,1,1,1,
Status,1731891150000,32,29,6,30,1575420030,34.60,57.0,33.0,1,1,0,
Status,1731891150000,32,30,6,34,1575420030,27.70,66.0,18.0,1,1,0,
Status,1731891150000,32,31,6,13,1575420030,0.00,0.0,0.0,0,1,0,
OrientationDeg,1731891152510,504291880389985,208.0,-3.0,-7.0
UncalGyro,1731891152512,504291882882693,-0.20083067,-0.41371515,-1.5014408,0.00053453585,-0.00037726082,-0.0016775369
UncalMag,1731891152518,504291889186027,281.87115,-54.34895,-386.91537,273.9417,-25.969566,-344.5698
UncalAccel,1731891152520,504291890375402,1.4483145,0.9943263,10.076623,0.0,0.0,0.0
OrientationDeg,1731891152519,504291890375402,209.0,-3.0,-7.0
UncalGyro,1731891152522,504291892868110,-0.23385385,-0.4946752,-1.5046365,0.00053453585,-0.00037726082,-0.0016775369
UncalMag,1731891152528,504291899117277,282.09253,-54.69606,-385.4671,273.9417,-25.969566,-344.5698
UncalAccel,1731891152530,504291900360818,1.2324423,0.9704412,10.353658,0.0,0.0,0.0
OrientationDeg,1731891152529,504291900360818,209.0,-3.0,-7.0
Raw,1731891150439,692150007000000,,,-1415234218432443631,-0.5000057220458984,37.63819404412061,30.884263176302383,18.42102797727843,29,14,0.0,207,13950369731336,10,34.2,284.2650451660156,0.23560000956058502,16,0.0,0.0,1598062460,,,,0,,3,2.21,,,,,,,,
Raw,1731891150439,692150007000000,,,-1415234218432443631,-0.5000057220458984,37.63819404412061,30.884263176302383,18.42102797727843,29,6,0.0,207,13950361922739,53,19.7,-390.0534973144531,1.1980000734329224,16,0.0,0.0,1599750020,,,,0,,3,2.21,,,,,,,,
Raw,1731891150439,692150007000000,,,-1415234218432443631,-0.5000057220458984,37.63819404412061,30.884263176302383,18.42102797727843,29,16,0.0,207,13950361243493,11,33.4,-493.3362121582031,0.22440001368522644,16,0.0,0.0,1601437440,,,,0,,3,2.21,,,,,,,,
Raw,1731891150439,692150007000000,,,-1415234218432443631,-0.5000057220458984,37.63819404412061,30.884263176302383,18.42102797727843,29,15,0.0,207,13950371845462,17,28.5,-189.30715942382812,0.7129999995231628,16,0.0,0.0,1602000000,,,,0,,3,2.21,,,,,,,,
Raw,1731891150439,692150007000000,,,-1415234218432443631,-0.5000057220458984,37.63819404412061,30.884263176302383,18.42102797727843,29,5,0.0,207,13950368743734,17,28.8,377.0035705566406,0.7085000276565552,16,0.0,0.0,1602562560,,,,0,,3,2.21,,,,,,,,
Raw,1731891150439,692150007000000,,,-1415234218432443631,-0.5000057220458984,37.63819404412061,30.884263176302383,18.42102797727843,29,24,0.0,207,13950369692676,10,34.7,75.0277099609375,0.23560000956058502,16,0.0,0.0,1603124990,,,,0,,3,2.21,,,,,,,,
Raw,1731891150439,692150007000000,,,-1415234218432443631,-0.5000057220458984,37.63819404412061,30.884263176302383,18.42102797727843,29,23,0.0,207,13950358479050,442,16.3,678.9921264648438,13.483500480651855,16,0.0,0.0,1603687550,,,,0,,3,2.21,,,,,,,,
Raw,1731891150439,692150007000000,,,-1415234218432443631,-0.5000057220458984,37.63819404412061,30.884263176302383,18.42102797727843,29,17,0.0,207,13950368766737,27,24.1,-638.1743774414062,0.8784999847412109,16,0.0,0.0,1604249980,,,,0,,3,2.21,,,,,,,,
Raw,1731891150439,692150007000000,,,-1415234218432443631,-0.5000057220458984,37.63819404412061,30.884263176302383,18.42102797727843,29,4,0.0,207,13950362933426,14,30.2,779.3670654296875,0.2287999987602234,16,0.0,0.0,1605374980,,,,0,,3,2.21,,,,,,,,
Raw,1731891150439,692150007000000,,,-1415234218432443631,-0.5000057220458984,37.63819404412061,30.884263176302383,18.42102797727843,29,2,0.0,15,89568359717562,24,25.2,98.76111602783203,0.38030001521110535,16,0.0,0.0,1575420030,,,,0,,1,-0.1,,,,,,,,
Raw,1731891150439,692150007000000,,,-1415234218432443631,-0.5000057220458984,37.63819404412061,30.884263176302383,18.42102797727843,29,7,0.0,15,89568360870284,46,20.0,537.4368896484375,0.9164999723434448,16,0.0,0.0,1575420030,,,,0,,1,-0.1,,,,,,,,
Raw,1731891150439,692150007000000,,,-1415234218432443631,-0.5000057220458984,37.63819404412061,30.884263176302383,18.42102797727843,29,13,0.0,15,89568369988512,6,38.6,96.03832244873047,0.03360000252723694,16,0.0,0.0,1575420030,,,,0,,1,-0.1,,,,,,,,
Raw,1731891150439,692150007000000,,,-1415234218432443631,-0.5000057220458984,37.63819404412061,30.884263176302383,18.42102797727843,29,14,0.0,15,89568370841264,11,33.6,163.9351043701172,0.03790000081062317,16,0.0,0.0,1575420030,,,,0,,1,-0.1,,,,,,,,
Raw,1731891150439,692150007000000,,,-1415234218432443631,-0.5000057220458984,37.63819404412061,30.884263176302383,18.42102797727843,29,15,0.0,15,89568364419617,6,39.5,-116.17208099365234,0.025600001215934753,16,0.0,0.0,1575420030,,,,0,,1,-0.1,,,,,,,,
Raw,1731891150439,692150007000000,,,-1415234218432443631,-0.5000057220458984,37.63819404412061,30.884263176302383,18.42102797727843,29,17,0.0,15,89568371555313,11,33.1,-154.55738830566406,0.039400000125169754,16,0.0,0.0,1575420030,,,,0,,1,-0.1,,,,,,,,
Raw,1731891150439,692150007000000,,,-1415234218432443631,-0.5000057220458984,37.63819404412061,30.884263176302383,18.42102797727843,29,19,0.0,15,89568366274681,9,35.0,-568.7404174804688,0.03060000203549862,16,0.0,0.0,1575420030,,,,0,,1,-0.1,,,,,,,,
Raw,1731891150439,692150007000000,,,-1415234218432443631,-0.5000057220458984,37.63819404412061,30.884263176302383,18.42102797727843,29,21,0.0,15,89568357561222,12,32.3,330.8360595703125,0.049400001764297485,16,0.0,0.0,1575420030,,,,0,,1,-0.1,,,,,,,,
Raw,1731891150439,692150007000000,,,-1415234218432443631,-0.5000057220458984,37.63819404412061,30.884263176302383,18.42102797727843,29,22,0.0,15,89568370124227,14,30.9,27.473161697387695,0.040800001472234726,16,0.0,0.0,1575420030,,,,0,,1,-0.1,,,,,,,,
Raw,1731891150439,692150007000000,,,-1415234218432443631,-0.5000057220458984,37.63819404412061,30.884263176302383,18.42102797727843,29,30,0.0,15,89568368537575,12,32.9,339.8406982421875,0.03590000048279762,16,0.0,0.0,1575420030,,,,0,,1,-0.1,,,,,,,,
Raw,1731891150439,692150007000000,,,-1415234218432443631,-0.5000057220458984,37.63819404412061,30.884263176302383,18.42102797727843,29,7,0.0,7183,89568353085380,13,31.0,551.50439453125,0.050700001418590546,16,0.0,0.0,1575420030,,,,0,,6,-0.1,,,,,,,,
Raw,1731891150439,692150007000000,,,-1415234218432443631,-0.5000057220458984,37.63819404412061,30.884263176302383,18.42102797727843,29,15,0.0,7183,89568349767508,46,20.9,-472.5086975097656,0.7519999742507935,16,0.0,0.0,1575420030,,,,0,,6,-0.1,,,,,,,,
Raw,1731891150439,692150007000000,,,-1415234218432443631,-0.5000057220458984,37.63819404412061,30.884263176302383,18.42102797727843,29,19,0.0,7183,89568353398911,10,34.1,-308.908935546875,0.047600001096725464,16,0.0,0.0,1575420030,,,,0,,6,-0.1,,,,,,,,
Raw,1731891150439,692150007000000,,,-1415234218432443631,-0.5000057220458984,37.63819404412061,30.884263176302383,18.42102797727843,29,21,0.0,7183,89568352509873,16,29.6,-315.51873779296875,0.050700001418590546,16,0.0,0.0,1575420030,,,,0,,6,-0.1,,,,,,,,
Raw,1731891150439,692150007000000,,,-1415234218432443631,-0.5000057220458984,37.63819404412061,30.884263176302383,18.42102797727843,29,27,0.0,7183,89568360415916,14,30.0,25.329429626464844,0.049800001084804535,16,0.0,0.0,1575420030,,,,0,,6,-0.1,,,,,,,,
Raw,1731891150439,692150007000000,,,-1415234218432443631,-0.5000057220458984,37.63819404412061,30.884263176302383,18.42102797727843,29,29,0.0,7183,89568358631506,9,35.0,133.78555297851562,0.048600003123283386,16,0.0,0.0,1575420030,,,,0,,6,-0.1,,,,,,,,
Raw,1731891150439,692150007000000,,,-1415234218432443631,-0.5000057220458984,37.63819404412061,30.884263176302383,18.42102797727843,29,30,0.0,7183,89568353236553,10,34.6,348.7186584472656,0.047600001096725464,16,0.0,0.0,1575420030,,,,0,,6,-0.1,,,,,,,,
